Store_Name,Longitude,Latitude,Address,Address Line #2,City,State,Zip5,Zip4,County,
"J K FOOD MART",-82.980095,30.304178,"969 Ohio Ave N","","Live Oak","FL","32064","1858","SUWANNEE" 
"CVS PHARMACY 7129",-81.61718,30.205233,"9509 San Jose Blvd","","Jacksonville","FL","32257","5431","DUVAL" 
"CVS PHARMACY 5854",-81.190552,28.925219,"2187 Howland Blvd","","Deltona","FL","32738","3441","VOLUSIA" 
"CVS PHARMACY 5917",-81.035149,29.144936,"3771 S Clyde Morris Blvd","","Port Orange","FL","32129","2319","VOLUSIA" 
"DOLLAR GENERAL 6670",-81.554863,28.807869,"24329 State Road 46","Bldg 3","Sorrento","FL","32776","8853","LAKE" 
"DOLLAR GENERAL 6526",-81.976318,27.894833,"410 W Canal St","","Mulberry","FL","33860","2914","POLK" 
"KWIK STOP FOOD STORE",-81.287697,28.756084,"3800 S Orlando Dr","","Sanford","FL","32773","6183","SEMINOLE" 
"DOLLAR GENERAL 9564",-82.728615,27.829411,"6304 66th St","","Pinellas Park","FL","33781","","PINELLAS" 
"DOLLAR GENERAL 7253",-82.055046,29.762402,"3186 SE State Road 21","","Melrose","FL","32666","5333","PUTNAM" 
"DOLLAR GENERAL 4821",-83.87027,30.53952,"801 S Jefferson St","","Monticello","FL","32344","1615","JEFFERSON" 
"DOLLAR GENERAL 1338",-82.775352,27.989157,"1883 N Highland Ave","","Clearwater","FL","33755","2156","PINELLAS" 
"DOLLAR GENERAL 1866",-82.764542,27.916716,"2138 E Bay Dr","Ste 211","Largo","FL","33771","2323","PINELLAS" 
"DOLLAR GENERAL 10565",-82.66703,27.711954,"2240 62nd Ave S","","Saint Petersburg","FL","33712","5374","PINELLAS" 
"DOLLAR GENERAL 4696",-81.510841,29.439697,"701 N Summit St","","Crescent City","FL","32112","2145","PUTNAM" 
"DOLLAR GENERAL 7841",-82.705711,27.872004,"5251 110th Ave N","Ste 110","Clearwater","FL","33760","4837","PINELLAS" 
"DOLLAR GENERAL 8329",-82.746262,27.971153,"422 N Belcher Rd","","Clearwater","FL","33765","2606","PINELLAS" 
"DOLLAR GENERAL 1421",-82.12265,30.26619,"1263 S 6th St","","Macclenny","FL","32063","4627","BAKER" 
"DOLLAR GENERAL 1337",-82.863472,29.491116,"1310 N Young Blvd","","Chiefland","FL","32626","1705","LEVY" 
"Walgreens 02192",-82.537521,28.461706,"11180 Spring Hill Dr","","Spring Hill","FL","34609","4648","HERNANDO" 
"WALGREENS 07651",-82.786446,27.894737,"10697 Ulmerton Rd","","Largo","FL","33771","3527","PINELLAS" 
"F & T Mini Market, Inc.",-80.742554,28.351742,"601 S Fiske Blvd","","Cocoa","FL","32922","7178","BREVARD" 
"BARAKAT FOOD STORE",-81.7062,30.313272,"3006 Post St","","Jacksonville","FL","32205","6032","DUVAL" 
"ON Z RUN FOOD MART",-82.699989,27.848551,"8431 49th St","","Pinellas Park","FL","33781","1552","PINELLAS" 
"PK's Food Store, Inc",-82.655815,27.811543,"4343 Haines Rd N","","St Petersburg","FL","33714","4232","PINELLAS" 
"STEAK HOUSE PANAMA CITY, LLC",-85.635765,30.167673,"1808 E 11th St","","Panama City","FL","32401","4441","BAY" 
"Dollar General 9705",-81.242294,29.551247,"500 Palm Coast Pkwy SW","","Palm Coast","FL","32137","4741","FLAGLER" 
"DOLLAR GENERAL 13153",-85.127197,30.576345,"26014 N Main St","","Altha","FL","32421","3328","CALHOUN" 
"DOLLAR GENERAL 5723",-81.917503,26.652573,"4150 Hancock Bridge Pkwy","Ste 2","North Fort Myers","FL","33903","4299","LEE" 
"Lee's Country Store",-81.715195,27.871302,"220 Central Ave","","Alturas","FL","33820","","POLK" 
"GLADES FOOD MARKET",-80.671585,26.682203,"364 SW AVE E","","BELLE GLADE","FL","33430","","PALM BEACH" 
"Five Stars Express",-82.218712,28.345333,"36108 State Road 52","","Dade City","FL","33525","8300","PASCO" 
"PUBLIX 1098",-80.605675,28.370068,"5645 N Atlantic Ave","","Cocoa Beach","FL","32931","3919","BREVARD" 
"DOLLAR CITY",-80.240891,26.154953,"6969 Sunset Strip","","Sunrise","FL","33313","2865","BROWARD" 
"Supermercado Jalisco",-81.855721,28.559486,"110 E Broad St","","Groveland","FL","34736","4002","LAKE" 
"PUBLIX 1079",-80.36245,26.064121,"4567 Weston Rd","","Weston","FL","33331","3141","BROWARD" 
"PUBLIX 1094",-80.129486,26.137362,"1415 E Sunrise Blvd","","Ft Lauderdale","FL","33304","2324","BROWARD" 
"CECIS PRODUCE",-80.267334,25.890165,"12705 NW 42nd Ave","","Opa Locka","FL","33054","5117","MIAMI DADE" 
"Bravo Supermarket",-81.475929,28.579308,"2701 N Hiawassee Rd","","Orlando","FL","32818","3009","ORANGE" 
"WATSON SEAFOOD",-81.790039,30.268953,"LOT 5 WILSON BLVD","","JACKSONVILLE","FL","32205","","DUVAL" 
"Oakes Meat Processing",-87.216423,30.773636,"2503 Segrest Rd","","Pace","FL","32571","9228","SANTA ROSA" 
"DOLLAR GENERAL 1401",-82.032249,29.793791,"300 Green Way","","Keystone Heights","FL","32656","7665","CLAY" 
"Dollar General 1404",-82.639214,30.178398,"857 SW Main Blvd","Ste 120","Lake City","FL","32025","5796","COLUMBIA" 
"DOLLAR GENERAL 1419",-81.643433,26.600979,"25 Homestead Rd N Ste 21","","Lehigh Acres","FL","33936","6600","LEE" 
"DOLLAR GENERAL 1420",-82.462433,28.141443,"18451 N US Highway 41","","Lutz","FL","33549","4470","HILLSBOROUGH" 
"DOLLAR GENERAL 1453",-82.255585,27.046761,"12995 Tamiami Trl S","","North Port","FL","34287","1943","SARASOTA" 
"DOLLAR GENERAL 1454",-82.068619,29.209404,"4901 NE SILVER SPRINGS BLVD","","OCALA","FL","34470","","MARION" 
"DOLLAR GENERAL 1468",-82.700142,27.841623,"7680 49th St","","Pinellas Park","FL","33781","3438","PINELLAS" 
"DOLLAR GENERAL 1480",-80.487068,27.841837,"13640 US Highway 1","Ste 16","Sebastian","FL","32958","","INDIAN RIVER" 
"Supermarket Acapulco Tropical Inc.",-82.562866,27.468819,"3525 1st St","","Bradenton","FL","34208","4441","MANATEE" 
"CVS PHARMACY 1055",-87.290733,30.570711,"2090 S Highway 29","","Cantonment","FL","32533","8699","ESCAMBIA" 
"CVS PHARMACY 3522",-80.141449,25.961332,"2974 Aventura Blvd","","Miami","FL","33180","3103","MIAMI DADE" 
"DOLLAR GENERAL 1490",-82.512154,27.2694,"2881 Clark Rd","Ste 10","Sarasota","FL","34231","6200","SARASOTA" 
"DOLLAR GENERAL 0116",-81.724686,28.817764,"395 E Burleigh Blvd","","Tavares","FL","32778","2201","LAKE" 
"DOLLAR GENERAL 0378",-81.887962,26.665371,"13860 N Cleveland Ave Ste F","","North Fort Myers","FL","33903","4319","LEE" 
"DOLLAR GENERAL 0528",-81.757385,30.270098,"6855 Wilson Blvd","Ste 15","Jacksonville","FL","32210","3600","DUVAL" 
"Dollar General 712",-81.712601,30.165466,"900 E Kingsley Ave","","Orange Park","FL","32073","4910","CLAY" 
"Dollar General 818",-82.818359,29.617599,"626 N Main St","","Trenton","FL","32693","3402","GILCHRIST" 
"DOLLAR GENERAL 0955",-82.716553,28.216913,"5910 State Route 54","","NEW PORT RICHEY","FL","34653","","PASCO" 
"DOLLAR GENERAL 1095",-80.278175,26.008135,"10000 Pines Blvd","","Pembroke Pines","FL","33024","6137","BROWARD" 
"DOLLAR GENERAL 1128",-81.003006,29.173426,"2016 S Ridgewood Ave","","South Daytona","FL","32119","2241","VOLUSIA" 
"DOLLAR GENERAL 1313",-81.506111,27.523842,"104 Tanglewood Dr","","Sebring","FL","33872","","HIGHLANDS" 
"DOLLAR GENERAL 1323",-81.514595,27.585924,"904 US Highway 27 S","","Avon Park","FL","33825","4918","HIGHLANDS" 
"DOLLAR GENERAL 1326",-82.068382,29.066166,"10775 SE US Highway 441","","Belleview","FL","34420","3859","MARION" 
"DOLLAR GENERAL 1331",-82.29071,27.937595,"459 W Brandon Blvd","","Brandon","FL","33511","5001","HILLSBOROUGH" 
"DOLLAR GENERAL 1333",-81.828835,30.564798,"450019 State Road 200","","Callahan","FL","32011","3832","NASSAU" 
"DOLLAR GENERAL 1334",-81.941139,26.608358,"2323 Del Prado Blvd S","","Cape Coral","FL","33990","4615","LEE" 
"DOLLAR GENERAL 1342",-80.740089,28.376404,"801 Dixon Blvd","Ste 1155","Cocoa","FL","32922","6880","BREVARD" 
"DOLLAR GENERAL 1348",-82.187302,28.344267,"12854 US Highway 301","","Dade City","FL","33525","5801","PASCO" 
"DOLLAR GENERAL 1350",-81.048676,29.222103,"894 N Nova Rd","","Daytona Beach","FL","32117","4616","VOLUSIA" 
"DOLLAR GENERAL 1354",-82.456985,29.054735,"11582 N Williams St","Ste 2","Dunnellon","FL","34432","8305","MARION" 
"DOLLAR GENERAL 1356",-80.919846,29.009539,"1417 S Dixie Fwy","","New Smyrna Beach","FL","32168","7604","VOLUSIA" 
"DOLLAR GENERAL 1382",-82.601959,29.838671,"20115 N US Highway 441","","High Springs","FL","32643","7206","ALACHUA" 
"DOLLAR GENERAL 1383",-82.740051,28.195799,"2541 US Highway 19","","Holiday","FL","34691","3847","PASCO" 
"DOLLAR GENERAL 1389",-82.698212,28.356659,"13780 US Highway 19","","Hudson","FL","34667","1458","PASCO" 
"DOLLAR GENERAL 1392",-82.31591,28.817978,"3042 S Florida Ave","","Inverness","FL","34450","6872","CITRUS" 
"DOLLAR GENERAL 1395",-81.746841,30.248348,"6360 103rd St","","Jacksonville","FL","32210","7735","DUVAL" 
"DOLLAR GENERAL 1513",-80.817688,28.585773,"1400 Harrison St","","Titusville","FL","32780","5457","BREVARD" 
"PUBLIX 1088",-82.648453,28.035158,"8975 Race Track Rd","","Tampa","FL","33635","9724","HILLSBOROUGH" 
"PUBLIX 1099",-81.533455,30.059025,"2845 County Road 210 W","","Saint Johns","FL","32259","2016","ST JOHNS" 
"PUBLIX 1113",-82.390175,27.772102,"6434 N US Highway 41","","Apollo Beach","FL","33572","1804","HILLSBOROUGH" 
"PUBLIX 1004",-82.63382,27.496128,"7310 Manatee Ave W","","Bradenton","FL","34209","3441","MANATEE" 
"DOLLAR GENERAL 3419",-82.211456,28.230019,"36671 State Road 54","","Zephyrhills","FL","33541","6917","PASCO" 
"DOLLAR GENERAL 3473",-81.870529,30.064617,"2620 BLANDING BLVD","","MIDDLEBURG","FL","32068","","CLAY" 
"Dollar General 3572",-82.531853,27.521664,"3203 US Highway 301 N","","Ellenton","FL","34222","2121","MANATEE" 
"WHOLE FOODS MARKET 10189",-82.542572,27.337297,"1451 1st St","","Sarasota","FL","34236","5709","SARASOTA" 
"JERUSALEM DELI & GROCERY",-81.47979,28.334314,"2922 Vineland Rd","","Kissimmee","FL","34746","5503","OSCEOLA" 
"DOLLAR GENERAL 7584",-82.484306,28.02429,"8212 N Armenia Ave","","Tampa","FL","33604","2732","HILLSBOROUGH" 
"DOLLAR GENERAL 3588",-80.568954,28.097931,"818 N Miramar Ave","","Indialantic","FL","32903","3004","BREVARD" 
"DOLLAR GENERAL 3662",-81.900223,28.849564,"3335 US Highway 441/27","","Fruitland Park","FL","34731","4478","LAKE" 
"DOLLAR GENERAL 3699",-82.534248,28.058331,"5333 Gunn Hwy","","Tampa","FL","33624","4103","HILLSBOROUGH" 
"DOLLAR GENERAL 3941",-80.32589,27.422213,"2514 S US Highway 1","","Fort Pierce","FL","34982","5917","ST LUCIE" 
"DOLLAR GENERAL 3970",-82.707451,28.258718,"6445 Massachusetts Ave","","New Port Richey","FL","34653","2541","PASCO" 
"DOLLAR GENERAL 4017",-82.464996,28.922712,"4035 N Lecanto Hwy","","Beverly Hills","FL","34465","3551","CITRUS" 
"DOLLAR GENERAL 4037",-80.671753,28.145491,"2447 N Wickham Rd","Ste 130","Melbourne","FL","32935","8127","BREVARD" 
"DOLLAR GENERAL 7616",-82.866364,29.763935,"1780 N Main St","","Bell","FL","32619","4712","GILCHRIST" 
"DOLLAR GENERAL 7628",-80.131393,25.985769,"1620 E Hallandale Beach Blvd","","Hallandale Beach","FL","33009","4610","BROWARD" 
"DOLLAR GENERAL 7680",-81.082214,26.82423,"1100 US HWY 27","","MOORE HAVEN","FL","33471","1555","GLADES" 
"DOLLAR GENERAL 7685",-81.612625,30.295717,"5161 Beach Blvd","Ste 7","Jacksonville","FL","32207","5050","DUVAL" 
"DOLLAR GENERAL 7692",-81.348236,29.916325,"525 STATE RD 16","Ste 12","ST AUGUSTINE","FL","32084","3840","ST JOHNS" 
"Dollar General 7728",-81.666267,29.657434,"3621 Reid St","","Palatka","FL","32177","2520","PUTNAM" 
"DOLLAR GENERAL 7744",-81.852882,26.69713,"6351 Bayshore Rd","","North Fort Myers","FL","33917","3123","LEE" 
"Dollar General 4341",-82.543587,28.485861,"3449 Mariner Blvd","","Spring Hill","FL","34609","2463","HERNANDO" 
"PRIME TIME FOOD STORE",-81.829704,28.179144,"501 Commonwealth Ave SW","","Polk City","FL","33868","9704","POLK" 
"DOLLAR GENERAL 4444",-82.195984,29.211329,"2371 NW 45th Ter","","Ocala","FL","34482","8562","MARION" 
"CVS PHARMACY 5852",-81.404625,28.368879,"13454 S Orange Blossom Trl","","Orlando","FL","32837","6601","ORANGE" 
"DOLLAR GENERAL 4447",-82.627747,28.4566,"1430 Pinehurst Dr","","Spring Hill","FL","34606","4553","HERNANDO" 
"CARNICERIA MONTERREY",-81.419441,26.4202,"120 N 3rd St","","Immokalee","FL","34142","3740","COLLIER" 
"DOLLAR GENERAL 4486",-81.91539,30.687489,"551609 US Highway 1","","Hilliard","FL","32046","8282","NASSAU" 
"DOLLAR GENERAL 1518",-80.38707,27.63979,"660 Miracle Mile","","Vero Beach","FL","32960","0937","INDIAN RIVER" 
"DOLLAR GENERAL 1521",-80.227318,26.024454,"6971 Taft St","","Hollywood","FL","33024","3801","BROWARD" 
"DOLLAR GENERAL 1525",-82.045448,28.853086,"629 S Main St","","Wildwood","FL","34785","4533","SUMTER" 
"DOLLAR GENERAL 1530",-82.188782,28.244116,"5919 Gall Blvd","","Zephyrhills","FL","33542","3464","PASCO" 
"Dollar General 1537",-82.47966,27.298723,"4444 Bee Ridge Rd","","Sarasota","FL","34233","2502","SARASOTA" 
"Dollar General 7809",-82.575546,27.42716,"6414 14th St W","","Bradenton","FL","34207","5329","MANATEE" 
"DOLLAR GENERAL 7818",-82.581161,27.996868,"8615 HILLSBOROUGH AVE","","TAMPA","FL","33615","","HILLSBOROUGH" 
"DOLLAR GENERAL 1560",-82.58474,28.890106,"736 SE US Highway 19","","Crystal River","FL","34429","4810","CITRUS" 
"DOLLAR GENERAL 7833",-82.136879,27.008736,"1700 Tamiami Trl Unit B1","","Port Charlotte","FL","33948","1061","CHARLOTTE" 
"DOLLAR GENERAL 7856",-80.249168,26.008972,"8070 Pines Blvd","","Pembroke Pines","FL","33024","6708","BROWARD" 
"DOLLAR GENERAL 1635",-82.496483,29.794939,"15250 NW US Highway 441","","Alachua","FL","32615","8604","ALACHUA" 
"DOLLAR GENERAL 7897",-82.709129,29.919022,"7255 SW US Highway 27","","Fort White","FL","32038","3388","COLUMBIA" 
"DOLLAR GENERAL 1651",-82.114532,28.668533,"125 W Belt Ave","","Bushnell","FL","33513","5101","SUMTER" 
"DOLLAR GENERAL 1958",-81.453339,30.656946,"1026 S 14th St","","Fernandina Beach","FL","32034","2919","NASSAU" 
"DOLLAR GENERAL 1965",-80.634827,27.998642,"1155 Malabar Rd NE","Ste 6","Palm Bay","FL","32907","3262","BREVARD" 
"DOLLAR GENERAL 2258",-81.731094,30.331837,"732 Edgewood Ave N","","Jacksonville","FL","32254","3014","DUVAL" 
"DOLLAR GENERAL 2365",-81.440102,27.484419,"1540 Lakeview Dr","","Sebring","FL","33870","","HIGHLANDS" 
"DOLLAR GENERAL 2432",-81.413673,30.349171,"2292 Mayport Rd","Ste 19","Jacksonville","FL","32233","6341","DUVAL" 
"DOLLAR GENERAL 2433",-82.512436,28.533756,"12983 Cortez Blvd","","Brooksville","FL","34613","4884","HERNANDO" 
"DOLLAR GENERAL 2434",-82.722908,28.223118,"4404 Grand Blvd","","New Port Richey","FL","34652","","PASCO" 
"DOLLAR GENERAL 2458",-82.669044,29.028511,"95 Highway 19 S","","Inglis","FL","34449","9681","LEVY" 
"DOLLAR GENERAL 2461",-81.749634,30.306833,"5846 Normandy Blvd","","Jacksonville","FL","32205","6253","DUVAL" 
"DOLLAR GENERAL 2478",-81.785263,30.131454,"1120 Blanding Blvd","","Orange Park","FL","32065","6704","CLAY" 
"DOLLAR GENERAL 2496",-81.805817,26.680174,"4901 Palm Beach Blvd","Unit 66","Fort Myers","FL","33905","3251","LEE" 
"DOLLAR GENERAL 2614",-81.593666,30.366299,"6240 FORT CAROLINE RD","","JACKSONVILLE","FL","32277","","DUVAL" 
"DOLLAR GENERAL 2705",-80.63855,28.118309,"750 N Apollo Blvd","","Melbourne","FL","32935","5068","BREVARD" 
"DOLLAR GENERAL 2762",-82.228455,28.524933,"6336 Sherman Hills Blvd","","Brooksville","FL","34602","","HERNANDO" 
"DOLLAR GENERAL 2821",-81.567429,30.287418,"8595 Beach Blvd","Ste 324","Jacksonville","FL","32216","4673","DUVAL" 
"DOLLAR GENERAL 7973",-82.151871,29.263281,"7371 N US Highway 441","","Ocala","FL","34475","7667","MARION" 
"DOLLAR GENERAL 8007",-81.739632,30.202499,"8102 Blanding Blvd","Ste 3","Jacksonville","FL","32244","5825","DUVAL" 
"DOLLAR GENERAL 2892",-82.109863,29.222956,"2040 NE 35th St","","Ocala","FL","34479","2910","MARION" 
"DOLLAR GENERAL 8041",-82.167503,29.815708,"17481 NE US Highway 301","","Waldo","FL","32694","4627","ALACHUA" 
"DOLLAR GENERAL 3029",-81.675407,30.436554,"1921 Dunn Ave","","Jacksonville","FL","32218","4713","DUVAL" 
"Dollar General 3072",-82.663284,28.330984,"9130 State Rd 52","","Hudson","FL","34669","","PASCO" 
"DOLLAR GENERAL 3088",-82.024719,26.892281,"3941 Tamiami Trl Unit 3125","","Punta Gorda","FL","33950","7924","CHARLOTTE" 
"DOLLAR GENERAL 3126",-81.995834,29.088531,"9743 SE Maricamp Rd","","Ocala","FL","34472","2406","MARION" 
"DOLLAR GENERAL 9703",-81.900131,26.520649,"8750 Gladiolus Dr","Ste 9A","Fort Myers","FL","33908","4166","LEE" 
"FRESH SEAFOOD AND GROCERY",-81.273041,28.78319,"2520 S French Ave","","Sanford","FL","32773","5321","SEMINOLE" 
"DOLLAR GENERAL 8042",-83.181038,30.054077,"488 W Main St","","Mayo","FL","32066","4148","LAFAYETTE" 
"DOLLAR GENERAL 8116",-82.612473,27.486368,"5102 15th St E # E-E","","Bradenton","FL","34203","4858","MANATEE" 
"DOLLAR GENERAL 8432",-87.063019,30.607025,"6236 Highway 90","","Milton","FL","32570","1709","SANTA ROSA" 
"DOLLAR GENERAL 8648",-81.129601,29.480339,"312 Moody Blvd","","Flagler Beach","FL","32136","3373","FLAGLER" 
"DOLLAR GENERAL 8736",-80.373611,27.421913,"4890 Okeechobee Rd","","Fort Pierce","FL","34947","5418","ST LUCIE" 
"DOLLAR GENERAL 8788",-80.307045,27.302919,"9031 S US Highway 1","","Port St Lucie","FL","34952","4213","ST LUCIE" 
"DOLLAR GENERAL 9012",-80.207466,26.003958,"830 S State Road 7","","Hollywood","FL","33023","6728","BROWARD" 
"DOLLAR GENERAL 9021",-84.894081,29.73587,"176 US Highway 98","","Eastpoint","FL","32328","3304","FRANKLIN" 
"DOLLAR GENERAL 9036",-82.353035,26.96999,"410 N Indiana Ave","","Englewood","FL","34223","2702","SARASOTA" 
"DOLLAR GENERAL 9065",-83.356483,29.689987,"1209 Highway 51 NE","","Steinhatchee","FL","32359","","TAYLOR" 
"DOLLAR GENERAL 9095",-82.41732,27.100304,"840 Pinebrook Rd","","Venice","FL","34285","7123","SARASOTA" 
"DOLLAR GENERAL 9149",-82.570816,28.519691,"6210 Commercial Way","","Weeki Wachee","FL","34613","6325","HERNANDO" 
"DOLLAR GENERAL 9259",-82.177216,29.013304,"198 Marion Oaks Blvd","","Ocala","FL","34473","2215","MARION" 
"DOLLAR GENERAL 9268",-82.445351,29.130922,"19552 SW 56th Ln","","Dunnellon","FL","34431","4689","MARION" 
"DOLLAR GENERAL 9269",-82.365135,28.882792,"1385 N Florida Ave","","Hernando","FL","34442","4420","CITRUS" 
"DOLLAR GENERAL 9285",-82.223549,29.110889,"7575 SW 62nd Ct","","Ocala","FL","34476","5596","MARION" 
"DOLLAR GENERAL 9343",-82.699089,28.329969,"11928 US Highway 19","","Port Richey","FL","34668","1055","PASCO" 
"DOLLAR GENERAL 9391",-82.703285,28.303968,"10097 US Highway 19","","Port Richey","FL","34668","3742","PASCO" 
"DOLLAR GENERAL 9402",-80.11084,26.71685,"2695 N Military Trl","","West Palm Beach","FL","33409","2974","PALM BEACH" 
"DOLLAR GENERAL 9424",-80.13546,26.619255,"5859 Lake Worth Rd","","Greenacres","FL","33463","3209","PALM BEACH" 
"DOLLAR GENERAL 9435",-82.626694,27.495972,"6545 Manatee Ave W","","Bradenton","FL","34209","2326","MANATEE" 
"DOLLAR GENERAL 9477",-81.322929,29.818472,"4010 US Highway 1 S","Ste 6","St Augustine","FL","32086","4701","ST JOHNS" 
"DOLLAR GENERAL 4487",-81.249825,29.456537,"1208 S State St","","Bunnell","FL","32110","","FLAGLER" 
"DOLLAR GENERAL 4503",-82.751144,28.17197,"1947 N Pinellas Ave","","Tarpon Springs","FL","34689","5749","PINELLAS" 
"DOLLAR GENERAL 4597",-82.521637,27.449512,"5177 33rd St E","","Bradenton","FL","34203","4328","MANATEE" 
"DOLLAR GENERAL 4625",-81.281609,29.859798,"1953 A1A S","","Saint Augustine","FL","32080","6509","ST JOHNS" 
"DOLLAR GENERAL 4715",-82.980431,29.601341,"25873 SE Highway 19","","Old Town","FL","32680","3997","DIXIE" 
"DOLLAR GENERAL 4852",-82.576408,28.806791,"3795 S Suncoast Blvd","","Homosassa","FL","34448","2602","CITRUS" 
"DOLLAR GENERAL 4950",-81.508179,29.715382,"124 N Main St","","Hastings","FL","32145","","ST JOHNS" 
"DOLLAR GENERAL 6042",-82.432663,28.05431,"2363 E Fowler Ave","","Tampa","FL","33612","5509","HILLSBOROUGH" 
"DOLLAR GENERAL 6132",-82.493713,27.53451,"7026 US Highway 301 N","","Ellenton","FL","34222","3030","MANATEE" 
"DOLLAR GENERAL 7143",-82.519165,29.530361,"13470 SW State Road 45","","Archer","FL","32618","5562","ALACHUA" 
"DOLLAR GENERAL 7228",-87.138573,30.603594,"4439 Highway 90","","Pace","FL","32571","2066","SANTA ROSA" 
"DOLLAR GENERAL 7268",-81.697464,30.247177,"5525 Roosevelt Blvd","","Jacksonville","FL","32244","2345","DUVAL" 
"DOLLAR GENERAL 7370",-82.509399,27.995916,"3966 W Hillsborough Ave","","Tampa","FL","33614","5628","HILLSBOROUGH" 
"DOLLAR GENERAL 7376",-82.055122,27.003901,"1960 Kings Hwy","","Port Charlotte","FL","33980","4214","CHARLOTTE" 
"DOLLAR GENERAL 7457",-81.700478,30.438719,"3139 Dunn Ave","","Jacksonville","FL","32218","4555","DUVAL" 
"DOLLAR GENERAL 7468",-81.111206,29.258465,"1462 W Granada Blvd","Ste 205","Ormond Beach","FL","32174","9167","VOLUSIA" 
"DOLLAR GENERAL 7494",-80.085648,26.965176,"608 N US Highway 1","","Tequesta","FL","33469","2374","PALM BEACH" 
"DOLLAR GENERAL 7540",-81.416161,28.301958,"1116 N John Young Pkwy","","Kissimmee","FL","34741","4201","OSCEOLA" 
"DOLLAR GENERAL 7541",-81.722481,28.004135,"381 Cypress Gardens Blvd","","Winter Haven","FL","33880","4452","POLK" 
"DOLLAR GENERAL 10535",-82.321678,29.688293,"145 NE 39th Ave","","Gainesville","FL","32609","1724","ALACHUA" 
"DOLLAR GENERAL 7573",-80.838486,28.615282,"2847 Garden St Ste A","","Titusville","FL","32796","3196","BREVARD" 
"AMIGO'S FOOD STORE, INC",-80.13131,26.218128,"933 S Dixie Hwy W","","Pompano Beach","FL","33060","7821","BROWARD" 
"PUBLIX 1005",-85.973595,30.264708,"23026 Panama City Beach Pkwy","","Panama City Beach","FL","32413","1107","BAY" 
"PUBLIX 1092",-81.15377,28.514282,"3400 Avalon Park East Blvd","","Orlando","FL","32828","7362","ORANGE" 
"Union Discount Market",-80.070976,26.45508,"382 SE 2nd Ave","","Delray Beach","FL","33483","4402","PALM BEACH" 
"DOLLAR GENERAL 0136",-80.115395,26.673758,"4645 Gun Club Rd","Ste 6","West Palm Beach","FL","33415","2833","PALM BEACH" 
"DOLLAR GENERAL 1365",-80.208015,26.062313,"4835 S State Road 7","","Davie","FL","33314","5646","BROWARD" 
"DOLLAR GENERAL 7902",-82.162369,30.276283,"7322 W Mount Vernon St","","Glen Saint Mary","FL","32040","4927","BAKER" 
"DOLLAR GENERAL 7916",-80.284111,26.16946,"9980 W Oakland Park Blvd","","Sunrise","FL","33351","7010","BROWARD" 
"DOLLAR GENERAL 9319",-82.039879,29.130232,"6725 SE Maricamp Rd","","Ocala","FL","34472","2811","MARION" 
"DOLLAR GENERAL 9964",-81.476181,28.579556,"2704 N Hiawassee Rd","","Orlando","FL","32818","3008","ORANGE" 
"CVS PHARMACY 5439",-80.688942,28.107292,"15 East Dr","","Melbourne","FL","32904","1024","BREVARD" 
"YARA'S SEAFOOD",-81.596741,30.3494,"2640 Cesery Blvd","Ste 9","Jacksonville","FL","32211","3858","DUVAL" 
"APPLE A DAY HEALTH FOODS",-81.44426,27.472151,"2938 US Highway 27 S","","Sebring","FL","33870","5057","HIGHLANDS" 
"FATEMA MARKET",-80.077278,26.316402,"2030 NE 2nd St","","Deerfield Beach","FL","33441","3824","BROWARD" 
"M. D. Oriental Market, Inc.",-82.447052,28.054659,"1106 E Fowler Ave","","Tampa","FL","33612","5408","HILLSBOROUGH" 
"Florida Bakery",-82.498489,27.966644,"3320 W Columbus Dr","","Tampa","FL","33607","1820","HILLSBOROUGH" 
"Wauchula Food Store",-81.817657,27.55192,"501 N Florida Ave","","Wauchula","FL","33873","2110","HARDEE" 
"PUBLIX 1017",-80.157166,25.910906,"14641 Biscayne Blvd","","North Miami","FL","33181","1211","MIAMI DADE" 
"FISKE GROCERY",-80.742477,28.348911,"810 Fiske Blvd","","Rockledge","FL","32955","2036","BREVARD" 
"SILVER BEACH MARATHON",-80.05426,26.792391,"3707 Broadway","","Riviera Beach","FL","33404","2335","PALM BEACH" 
"DOLLAR GENERAL 5896",-80.325516,27.334454,"7175 S US Highway 1","","Port Saint Lucie","FL","34952","1431","ST LUCIE" 
"DOLLAR GENERAL 6951",-81.844528,27.209808,"1407 E Oak St Ste A","","Arcadia","FL","34266","8901","DESOTO" 
"DOLLAR GENERAL 7008",-80.243042,27.184151,"1558 SE Federal Hwy","","Stuart","FL","34994","3908","MARTIN" 
"45TH STREET GAS",-80.121635,26.76018,"5300 45TH ST","","WEST PALM BEACH","FL","33407","","PALM BEACH" 
"Dade Food Bazaar Corp/Bravo Supermarket",-82.189819,28.373522,"14821 7th St","","Dade City","FL","33523","","PASCO" 
"DOLLAR GENERAL 9431",-80.218361,27.196272,"2531 SE Ocean Blvd","","Stuart","FL","34996","3313","MARTIN" 
"Pierson Discount Beverage & Groceries Inc.",-81.463089,29.243343,"184 N Center St","","Pierson","FL","32180","2219","VOLUSIA" 
"Compare Supermarket, Inc",-81.286446,28.583271,"3020 N Goldenrod Rd","","Winter Park","FL","32792","8708","ORANGE" 
"Triangle BP",-81.760551,28.046444,"2600 Havendale Blvd NW","","Winter Haven","FL","33881","1826","POLK" 
"KWIK STOP FOOD STORE",-80.126198,26.321234,"290 Lock Rd","","Deerfield Beach","FL","33442","1516","BROWARD" 
"WAL-MART SUPERCENTER 5218",-82.679405,27.73587,"3501 34th St S","","St Petersburg","FL","33711","3820","PINELLAS" 
"WAL-MART NEIGHBORHOOD MARKET 5365",-80.672096,28.17103,"3950 N Wickham Rd","","Melbourne","FL","32935","2311","BREVARD" 
"WAL-MART NEIGHBORHOOD MARKET 5366",-80.621567,28.055502,"3550 S Babcock St","","Melbourne","FL","32901","8204","BREVARD" 
"SAVE-A-LOT 159",-81.777603,28.054436,"436 Havendale Blvd","","Auburndale","FL","33823","4548","POLK" 
"SAVE-A-LOT 160",-80.265129,26.272474,"1040 E Sample Rd","","Pompano Beach","FL","33064","5120","BROWARD" 
"Aegean Market & Deli",-82.795868,27.928957,"1370 Clearwater Largo Rd N","","Largo","FL","33770","1172","PINELLAS" 
"BELCHER FOOD STORE",-82.745911,27.943249,"1475 S Belcher Rd","","Clearwater","FL","33764","2829","PINELLAS" 
"ZEBO'S CRAB SHACK",-81.690765,30.334127,"1909 W Beaver St","","Jacksonville","FL","32209","7572","DUVAL" 
"826 FOOD",-80.267509,25.925163,"4078 NW 167th St","","Opa Locka","FL","33054","6234","MIAMI DADE" 
"PIC N SAV",-87.043152,30.624422,"5221 Stewart St","","Milton","FL","32570","4737","SANTA ROSA" 
"KOSHER MARKET PLACE",-80.153961,26.346939,"22191 Powerline Rd","","Boca Raton","FL","33433","5037","PALM BEACH" 
"POP'S FISH MARKET",-80.103294,26.318787,"131 W Hillsboro Blvd","","Deerfield Beach","FL","33441","3431","BROWARD" 
"HONG KONG MARKET",-80.203903,26.19157,"5371 N State Road 7","","Tamarac","FL","33319","2919","BROWARD" 
"TROPICAL SUPERMARKET #5",-80.295692,25.763292,"6190 SW 8th St","","West Miami","FL","33144","5005","MIAMI DADE" 
"WEST COAST GROCERY STORE",-81.687248,26.194,"12275 Collier Blvd","Ste 1","Naples","FL","34116","6031","COLLIER" 
"DIN HO MARKET",-82.484261,28.027632,"8502 N Armenia Ave","Ste 2D","Tampa","FL","33604","2569","HILLSBOROUGH" 
"WALGREENS 4387",-80.171082,26.165419,"2104 W Oakland Park Blvd","","Oakland Park","FL","33311","1524","BROWARD" 
"REY/CHAVEZ DISTRIBUTOR",-80.257874,25.840611,"7337 NW 37th Ave","Unit 1","Miami","FL","33147","5804","MIAMI DADE" 
"DOLLAR GENERAL 2465",-81.692345,30.006966,"3540 US Highway 17","","Green Cove Springs","FL","32043","4484","CLAY" 
"DOLLAR GENERAL 8539",-80.946442,26.754431,"941 W Sugarland Hwy","Unit 6","Clewiston","FL","33440","2705","HENDRY" 
"GABRE'S MARKET",-80.192825,25.846497,"199 NE 78th St","","Miami","FL","33138","4857","MIAMI DADE" 
"Citrus Foodmart",-82.351151,28.987192,"8520 N Carl G Rose Hwy","","Hernando","FL","34442","2135","CITRUS" 
"Dollar General 6515",-82.746826,30.329876,"16881 Springs St","","White Springs","FL","32096","1914","HAMILTON" 
"Kwik Stop",-80.266121,25.845741,"2581 E 8th Ave","","Hialeah","FL","33013","3449","MIAMI DADE" 
"PRESIDENT SUPERMARKET #4",-80.142792,25.997749,"1510 S Federal Hwy","","Hollywood","FL","33020","6344","BROWARD" 
"WALGREENS 00774",-81.133202,29.252577,"205 E Granada Blvd","","Ormond Beach","FL","32176","6632","VOLUSIA" 
"WALGREENS 04441",-81.057976,29.238983,"1600 N Nova Rd","","Holly Hill","FL","32117","2405","VOLUSIA" 
"WALGREENS 06970",-81.287415,28.756077,"3803 S Orlando Dr","","Sanford","FL","32773","6128","SEMINOLE" 
"WALGREENS 04960",-80.942039,29.014481,"1800 SR #44","","New Smyrna Beach","FL","32168","8341","VOLUSIA" 
"WALGREENS 03492",-80.840393,28.616211,"2935 Garden St","","Titusville","FL","32796","3050","BREVARD" 
"MANNY'S MEAT MARKET",-80.667686,26.688896,"321 N Main St","","Belle Glade","FL","33430","2603","PALM BEACH" 
"WALGREENS 03577",-81.221237,28.917576,"1925 Providence Blvd","","Deltona","FL","32725","3945","VOLUSIA" 
"WALGREENS 02909",-80.885139,29.016031,"800 Highway A1A","","New Smyrna Beach","FL","32169","","VOLUSIA" 
"WALGREENS 03931",-80.883858,28.9475,"3010 S Ridgewood Ave","","Edgewater","FL","32141","5903","VOLUSIA" 
"WALGREENS 04644",-80.797821,28.557079,"4600 S Washington Ave","","Titusville","FL","32780","7339","BREVARD" 
"WALGREENS 6798",-81.049927,29.261496,"1829 Ridgewood Ave","","Holly Hill","FL","32117","1737","VOLUSIA" 
"CARNICERIA HUETAMO, INC",-80.095024,26.459606,"2178 W Atlantic Ave","","Delray Beach","FL","33445","4657","PALM BEACH" 
"WALGREENS 05584",-81.026718,29.264059,"2679 N Atlantic Ave","","Daytona Beach","FL","32118","3205","VOLUSIA" 
"WALGREENS 04798",-80.978645,29.168806,"3004 S Atlantic Ave","","Daytona Beach","FL","32118","6102","VOLUSIA" 
"WALGREENS 04261",-81.039932,29.170647,"1420 Beville Rd","","Daytona Beach","FL","32114","5622","VOLUSIA" 
"WALGREENS 03894",-81.023979,29.115646,"1650 Dunlawton Ave","","Pt Orange","FL","32127","4754","VOLUSIA" 
"WALGREENS 05808",-81.208687,29.556185,"215 Palm Coast Pkwy NE","","Palm Coast","FL","32137","8218","FLAGLER" 
"WALGREENS 09959",-80.70282,28.384829,"1587 N Courtenay Pkwy","","Merritt Island","FL","32953","4454","BREVARD" 
"WALGREENS 3080",-80.621735,28.093695,"975 S Babcock St","","Melbourne","FL","32901","1852","BREVARD" 
"WALGREENS 4378",-80.7416,28.330732,"925 Barton Blvd","","Rockledge","FL","32955","3129","BREVARD" 
"WALGREENS 4248",-80.487129,27.841339,"13613 US Highway 1","","Sebastian","FL","32958","3230","INDIAN RIVER" 
"WALGREENS 4303",-80.755013,28.373671,"1106 Clearlake Rd","","Cocoa","FL","32922","6402","BREVARD" 
"WALGREENS 7931",-82.739479,28.095192,"35553 US Highway 19 N","","Palm Harbor","FL","34684","1702","PINELLAS" 
"POWER SUPERMARKET",-80.236,25.906979,"14566 NW 22nd Ave","","Opa Locka","FL","33054","3715","MIAMI DADE" 
"SCOTT'S WESPACK MEAT & CONVENIENCE STORE",-81.862984,26.633602,"2469 Edison Ave","","Fort Myers","FL","33901","5126","LEE" 
"STRAWBERRYS FOOD STORE",-80.260735,25.947567,"3600 NW 191st St","","Miami Gardens","FL","33056","2940","MIAMI DADE" 
"Habiba Bakery",-82.430733,28.081266,"14611 Livingston Ave","","Lutz","FL","33559","3102","HILLSBOROUGH" 
"DIRECT USA, INC.",-81.56778,30.184387,"5783 Mining Ter","Ste 3","Jacksonville","FL","32257","3223","DUVAL" 
"PHUOC LOC THO ORIENTAL SUPERMARKET",-82.531738,27.348558,"1944 12th St","","Sarasota","FL","34236","2612","SARASOTA" 
"CVS PHARMACY 5786",-80.18824,25.92734,"16550 NE 6th Ave","","Miami","FL","33162","3646","MIAMI DADE" 
"Kwik Stop",-81.289352,28.811474,"2201 W 1st St","","Sanford","FL","32771","1675","SEMINOLE" 
"DOLLAR GENERAL 6443",-82.375587,28.228094,"26609 Wesley Chapel Blvd","","Lutz","FL","33559","7211","HILLSBOROUGH" 
"DOLLAR GENERAL 6712",-80.171272,26.165691,"2121 W Oakland Park Blvd","Ste 1","Oakland Park","FL","33311","1507","BROWARD" 
"Dollar General 6676",-81.310188,27.437572,"6013 US Highway 98","","Sebring","FL","33876","9603","HIGHLANDS" 
"DOLLAR GENERAL 6495",-81.886574,29.180655,"16085 E Highway 40","","Silver Springs","FL","34488","5149","MARION" 
"DOLLAR GENERAL 10592",-80.049438,26.616037,"2 N Lakeside Dr","","Lake Worth","FL","33460","3910","PALM BEACH" 
"KWIK STOP GROCERY STORE",-80.055412,26.597963,"1418 S Dixie Hwy","","Lake Worth","FL","33460","5718","PALM BEACH" 
"VALENTINES MARKET",-80.48542,25.46349,"636 SW 6TH AVE.","","HOMESTEAD","FL","33030","","MIAMI DADE" 
"WAL-MART NEIGHBORHOOD MARKET 5179",-81.277374,28.541355,"201 S Chickasaw Trl","","Orlando","FL","32825","3504","ORANGE" 
"CITGO FOOD SHOP",-81.302971,29.013578,"900 S Woodland Blvd","","Deland","FL","32720","7322","VOLUSIA" 
"FLOWERS BAKERY THRIFT STORE 50000057",-82.639511,30.192942,"342 NW Main Blvd","","Lake City","FL","32055","3309","COLUMBIA" 
"FLOWERS BAKERY THRIFT STORE 50000060",-81.662209,29.648773,"109 S Palm Ave","","Palatka","FL","32177","","PUTNAM" 
"FLOWERS BAKERY THRIFT STORE 50000062",-82.223145,29.112902,"6285 SW Highway 200","","Ocala","FL","34476","5555","MARION" 
"Kangaroo Express 1282",-81.543098,30.170046,"11025 Philips Hwy","","Jacksonville","FL","32256","","DUVAL" 
"INTERNATIONAL GROCERS",-80.138344,26.163324,"2905 NE 6th Ave","","Wilton Manors","FL","33334","2606","BROWARD" 
"DOLLAR GENERAL 5844",-80.610023,28.32757,"595 N Atlantic Ave","","Cocoa Beach","FL","32931","3176","BREVARD" 
"DOLLAR GENERAL 6463",-84.390411,30.032461,"1434 Coastal Hwy","","Panacea","FL","32346","2153","WAKULLA" 
"TARGET STORE T-1966",-81.332634,28.800444,"1201 WP Ball Blvd","","Sanford","FL","32771","7204","SEMINOLE" 
"Big Apple",-82.157082,29.186291,"1943 W Silver Springs Blvd","","Ocala","FL","34475","6367","MARION" 
"DELTA FOOD MART",-82.277634,27.974152,"2402 S Kingsway Rd","","Seffner","FL","33584","5720","HILLSBOROUGH" 
"Xnax Food",-82.434814,28.039843,"2113 E Linebaugh Ave","","Tampa","FL","33612","8372","HILLSBOROUGH" 
"WILLMAR SEAFOOD INC",-80.256248,25.823488,"3621 NW 54th St","","Miami","FL","33142","3212","MIAMI DADE" 
"CARDENAS SEAFOOD",-85.751236,30.154667,"2810 Thomas Dr","","Panama City","FL","32408","6248","BAY" 
"Busy Bee Supermarket",-81.410614,28.472355,"2382 W Oak Ridge Rd","","Orlando","FL","32809","3716","ORANGE" 
"FLOWERS BAKERY THRIFT STORE",-81.516701,27.595638,"1202 Main St","","Avon Park","FL","33825","","HIGHLANDS" 
"CITGO FOODS",-82.310432,28.000233,"11305 E US Highway 92","","Seffner","FL","33584","3350","HILLSBOROUGH" 
"FLAVORS OF INDIA",-80.24897,26.027098,"2088 N University Dr","","Pembroke Pines","FL","33024","3608","BROWARD" 
"PORTALES LATIN AMERICAN MARKET",-82.381523,27.840996,"11042 US Highway 41 S","","Gibsonton","FL","33534","4713","HILLSBOROUGH" 
"GROCERY PRIMOS",-80.233963,25.853479,"8690 NW 22nd Ave","","Miami","FL","33147","4173","MIAMI DADE" 
"B & M CUSTOM CUT MEAT INC",-80.244621,25.921787,"16174 NW 27th Ave","","Opa Locka","FL","33054","6806","MIAMI DADE" 
"CARIBBEAN SUPERCENTER",-81.449883,28.552662,"5111 W Colonial Dr","","Orlando","FL","32808","7603","ORANGE" 
"TIENDA MEXICANA JALISCO",-81.286095,28.574961,"2021 N Goldenrod Rd","","Orlando","FL","32807","8543","ORANGE" 
"METRO SUPERMARKET",-80.244019,25.800381,"2671 NW 30th Ave","","Miami","FL","33142","6445","MIAMI DADE" 
"WALGREENS 3398",-81.458687,28.48233,"5501 S Kirkman Rd","","Orlando","FL","32819","7915","ORANGE" 
"WALGREENS 3650",-81.351494,28.553093,"2420 E Colonial Dr","","Orlando","FL","32803","5019","ORANGE" 
"JGM ASIAN MARKET INC",-81.770973,30.248436,"7457 103rd St","Ste 1","Jacksonville","FL","32210","6775","DUVAL" 
"D & V MARKET",-82.451241,28.039801,"9914 N Nebraska Ave","","Tampa","FL","33612","8056","HILLSBOROUGH" 
"MARIE'S MARKET",-80.187126,26.180264,"4390 NW 31st Ave","","Oakland Park","FL","33309","4206","BROWARD" 
"CVS PHARMACY 7980",-82.124046,30.282145,"121 W Macclenny Ave","","Macclenny","FL","32063","2029","BAKER" 
"CVS PHARMACY 7958",-84.233482,30.402128,"3644 Coolidge Ct","","Tallahassee","FL","32311","7890","LEON" 
"FAMILY PRODUCE MARKET",-81.32946,28.652498,"670 State Road 436","","Casselberry","FL","32707","5302","SEMINOLE" 
"WALGREENS 4646",-81.404716,28.39813,"11600 S Orange Blossom Trl","","Orlando","FL","32837","9215","ORANGE" 
"WALGREENS 5945",-81.623901,28.346924,"8400 W Irlo Bronson Memorial Hwy","","Kissimmee","FL","34747","1003","OSCEOLA" 
"WALGREENS 6627",-81.485893,28.385025,"12650 International Dr S","","Orlando","FL","32821","6942","ORANGE" 
"WALGREENS 7493",-81.326073,28.342503,"2900 Boggy Creek Rd","","Kissimmee","FL","34744","9500","OSCEOLA" 
"WALGREENS 7163",-81.319077,28.254967,"4501 13th St","","Saint Cloud","FL","34769","6742","OSCEOLA" 
"INTERNATIONAL SUPERMARKET",-80.206131,26.235588,"6091 W Atlantic Blvd","","Margate","FL","33063","5124","BROWARD" 
"Richee Rich Pantry",-82.456528,28.443426,"478 Broad St","","Masaryktown","FL","34604","7430","HERNANDO" 
"DELAND MEAT MARKET",-81.324127,29.023449,"320 S Spring Garden Ave","Ste A","Deland","FL","32720","5087","VOLUSIA" 
"MANHATTAN CITGO",-82.51841,27.897961,"4532 S Manhattan Ave","","Tampa","FL","33611","2306","HILLSBOROUGH" 
"KWIK STOP MINI MART",-80.455109,25.477293,"1582 NE 8th St","","Homestead","FL","33033","4602","MIAMI DADE" 
"MARKET AT CEDAR KEY",-83.033585,29.136597,"7031 D ST POBOX 129","","Cedar Key","FL","32625","0129","LEVY" 
"LA GRAN FAMILIA FOOD MARKET",-80.092613,26.702988,"2565 Westgate Ave","","West Palm Beach","FL","33409","5077","PALM BEACH" 
"MAYO FOOD MART",-83.175842,30.052996,"133 W Main St","","Mayo","FL","32066","4035","LAFAYETTE" 
"USA GROCER",-80.236488,26.220417,"8071 SW 7th Pl","","North Lauderdale","FL","33068","2136","BROWARD" 
"DISCOUNT FOOD MEAT MARKET",-82.446053,28.025337,"1302 E Waters Ave","","Tampa","FL","33604","3320","HILLSBOROUGH" 
"WAL-MART SUPERCENTER 5420",-81.48642,28.345255,"3250 Vineland Rd","","Kissimmee","FL","34746","4893","OSCEOLA" 
"K&D DISCOUNT BEVERAGE AND FOODS",-80.70015,28.365051,"500 N Courtenay Pkwy","","Merritt Island","FL","32953","4748","BREVARD" 
"NEIGHBORHOOD SUNOCO",-80.215759,25.811752,"3801 NW 12th Ave","","Miami","FL","33127","3010","MIAMI DADE" 
"WALGREEN 01779",-81.330345,28.513268,"4608 E Michigan St","","Orlando","FL","32812","5233","ORANGE" 
"WALGREEN 04554",-81.204643,28.546848,"12279 Lake Underhill Rd","","Orlando","FL","32825","5010","ORANGE" 
"Walgreens 04593",-80.095924,26.711351,"2200 Palm Beach Lakes Blvd","","West Palm Beach","FL","33409","3402","PALM BEACH" 
"WALGREEN 05178",-81.278519,28.647503,"5205 Red Bug Lake Rd","","Winter Springs","FL","32708","4911","SEMINOLE" 
"WALGREEN 05240",-81.244781,28.596521,"3950 N Dean Rd","","Orlando","FL","32817","5144","ORANGE" 
"WALGREEN 05399",-81.322525,28.648319,"955 S Winter Park Dr","","Casselberry","FL","32707","5437","SEMINOLE" 
"WALGREEN 05495",-81.288033,28.609327,"7403 Aloma Ave","","Winter Park","FL","32792","9101","ORANGE" 
"WALGREEN 06391",-81.309052,28.468822,"5702 Lee Vista Blvd","","Orlando","FL","32822","1502","ORANGE" 
"WALGREEN 06997",-81.177422,28.66012,"785 Lockwood Blvd","","Oviedo","FL","32765","8008","SEMINOLE" 
"WALGREEN 07149",-81.345474,28.697882,"115 E State Road 434","","Longwood","FL","32750","5273","SEMINOLE" 
"WALGREEN 07938",-81.24279,28.41502,"10425 Narcoossee Rd","","Orlando","FL","32832","6902","ORANGE" 
"DOLLAR GENERAL 10067",-81.809471,27.53454,"1030 S 6th Ave","","Wauchula","FL","33873","3306","HARDEE" 
"SAARAA CORNER STORE INC",-81.862663,28.811359,"102 S East St","","Leesburg","FL","34748","6065","LAKE" 
"WALGREEN 06487",-80.658119,27.949608,"3495 Bayside Lakes Blvd SE","","Palm Bay","FL","32909","6814","BREVARD" 
"WALGREEN 06463",-80.622017,28.01861,"5245 Babcock St NE","","Palm Bay","FL","32905","4601","BREVARD" 
"WALGREEN 06149",-80.592354,28.183683,"1098 Highway A1A","","Satellite Beach","FL","32937","2353","BREVARD" 
"WALGREEN 06704",-80.674744,27.999168,"175 Malabar Rd NW","","Palm Bay","FL","32907","2944","BREVARD" 
"WALGREEN 06181",-80.71804,28.265949,"5475 Murrell Rd","","Rockledge","FL","32955","6665","BREVARD" 
"WALGREEN 04259",-80.672104,28.172859,"4020 N Wickham Rd","","Melbourne","FL","32935","2472","BREVARD" 
"WALGREEN 04193",-80.671661,28.12915,"1350 N Wickham Rd","","Melbourne","FL","32935","8945","BREVARD" 
"WALGREEN 02284",-80.608223,28.356625,"4150 N Atlantic Ave","","Cocoa Beach","FL","32931","3510","BREVARD" 
"WALGREEN 05018",-80.637894,28.035358,"1213 Palm Bay Rd NE","","Melbourne","FL","32905","3781","BREVARD" 
"WALGREEN 04815",-80.576637,28.12207,"2200 N Highway A1A","","Melbourne","FL","32903","2511","BREVARD" 
"WALGREEN 04619",-80.497177,27.779121,"999 Sebastian Blvd","","Sebastian","FL","32958","4861","INDIAN RIVER" 
"WALGREEN 04401",-80.683334,28.356272,"90 S Sykes Creek Pkwy","","Merritt Island","FL","32952","3593","BREVARD" 
"WALGREEN 07386",-80.698151,28.230919,"7780 N Wickham Rd","","Melbourne","FL","32940","8262","BREVARD" 
"WALGREEN 06991",-80.44487,27.768785,"9595 N US Highway 1","","Sebastian","FL","32958","6301","INDIAN RIVER" 
"WALGREEN 06797",-80.721977,28.295752,"3799 Murrell Rd","","Rockledge","FL","32955","4710","BREVARD" 
"BLACK EAGLE FAMILY FOOD MARKET",-80.224419,25.82176,"5105 NW 17th Ave","","Miami","FL","33142","3813","MIAMI DADE" 
"DHAKA BAZAAR",-80.190376,25.92898,"16762 NE 5th Ave","","North Miami Beach","FL","33162","3928","MIAMI DADE" 
"SAVE-A-LOT 164",-81.29364,28.91123,"858 SAXON AVE","","ORANGE CITY","FL","32763","8215","VOLUSIA" 
"UNIVERSAL SUPERMARKET",-80.057137,26.601231,"1206 S Dixie Hwy","","Lake Worth","FL","33460","5610","PALM BEACH" 
"WAL-MART NEIGHBORHOOD MARKET 5451",-81.990921,26.578369,"3920 Skyline Blvd","","Cape Coral","FL","33914","5835","LEE" 
"DOLLAR GENERAL 7352",-82.108368,29.186918,"2167 E Silver Springs Blvd","","Ocala","FL","34470","6914","MARION" 
"DOLLAR GENERAL 2969",-82.728645,27.856327,"9301 66th St N","","Pinellas Park","FL","33782","4418","PINELLAS" 
"DOLLAR GENERAL 1406",-81.35833,27.298588,"107 US 27 N","","Lake Placid","FL","33852","7932","HIGHLANDS" 
"DOLLAR GENERAL 8401",-80.621681,28.044899,"4290 S Babcock St","","Melbourne","FL","32901","","BREVARD" 
"WALGREEN 02224",-82.198914,29.136782,"4747 SW College Rd","","Ocala","FL","34474","5719","MARION" 
"WALGREEN 04251",-81.207611,28.655828,"85 E Mitchell Hammock Rd","","Oviedo","FL","32765","9780","SEMINOLE" 
"WALGREEN 04262",-81.289627,28.911295,"897 Saxon Blvd","","Orange City","FL","32763","8204","VOLUSIA" 
"WALGREEN 12672",-81.402885,28.450373,"1835 Sand Lake Rd","","Orlando","FL","32809","7629","ORANGE" 
"WALGREEN 02839",-81.464531,28.462378,"6201 International Dr","","Orlando","FL","32819","8261","ORANGE" 
"WALGREEN 04525",-81.268631,28.510118,"8501 Curry Ford Rd","","Orlando","FL","32825","8427","ORANGE" 
"WALGREEN 03106",-81.521454,28.332937,"5935 W Irlo Bronson Memorial Hwy","","Kissimmee","FL","34746","4765","OSCEOLA" 
"WALGREEN 04906",-81.417542,28.487532,"5280 S John Young Pkwy","","Orlando","FL","32839","5026","ORANGE" 
"WALGREEN 04526",-81.276993,28.539133,"8000 Lake Underhill Rd","","Orlando","FL","32822","8231","ORANGE" 
"WALGREEN 04959",-81.36338,28.625191,"330 S Orlando Ave","","Maitland","FL","32751","5606","ORANGE" 
"WALGREEN 05464",-80.05616,26.753284,"4601 Broadway","","West Palm Beach","FL","33407","2901","PALM BEACH" 
"WALGREEN 06030",-81.181885,28.565252,"13700 E Colonial Dr","","Orlando","FL","32826","4962","ORANGE" 
"WALGREEN 07090",-81.207863,28.583521,"3000 N Alafaya Trl","","Orlando","FL","32826","3206","ORANGE" 
"WALGREEN 07165",-81.476173,28.61281,"5601 N Hiawassee Rd","","Orlando","FL","32818","1368","ORANGE" 
"WALGREEN 07298",-81.348373,28.652191,"7815 S US Highway 17/92","","Fern Park","FL","32730","2261","SEMINOLE" 
"WALGREEN 07314",-81.323631,28.625103,"2000 Howell Branch Rd","","Winter Park","FL","32792","1067","ORANGE" 
"WALGREEN 07363",-81.472153,28.435114,"8959 International Dr","","Orlando","FL","32819","9322","ORANGE" 
"WALGREEN 07385",-81.619247,28.518019,"15507 Stoneybrook West Pkwy","","Winter Garden","FL","34787","4734","ORANGE" 
"WALGREEN 07686",-81.414047,28.618383,"2814 W Kennedy Blvd","","Orlando","FL","32810","6138","ORANGE" 
"WALGREEN 04005",-81.726814,28.01449,"705 1st St S","","Winter Haven","FL","33880","3602","POLK" 
"WALGREEN 04023",-81.775902,28.053785,"501 Havendale Blvd","","Auburndale","FL","33823","4629","POLK" 
"WALGREEN 04380",-81.556732,27.894117,"1903 State Road 60 E","","Lake Wales","FL","33853","4329","POLK" 
"WALGREEN 04483",-80.236145,26.193947,"6401 W Commercial Blvd","","Tamarac","FL","33319","2110","BROWARD" 
"WALGREEN 05008",-80.220856,26.208578,"7105 W McNab Rd","","North Lauderdale","FL","33068","5492","BROWARD" 
"WALGREEN 05946",-81.514297,27.594763,"93 US Highway 27 S","","Avon Park","FL","33825","3334","HIGHLANDS" 
"WALGREEN 05947",-81.443665,27.471615,"3027 US Highway 27 S","","Sebring","FL","33870","5064","HIGHLANDS" 
"WALGREEN 06218",-81.683266,28.370197,"1600 US Highway 27","","Clermont","FL","34714","5890","LAKE" 
"WALGREEN 06940",-81.887688,28.80184,"901 S 14th St","","Leesburg","FL","34748","6615","LAKE" 
"WALGREEN 07800",-81.324684,29.087795,"3299 N Woodland Blvd","","Deland","FL","32720","1112","VOLUSIA" 
"WALGREEN 04913",-81.735634,28.044098,"805 Havendale Blvd NW","","Winter Haven","FL","33881","1311","POLK" 
"WALGREEN 06504",-81.346992,28.524113,"2814 Curry Ford Rd","","Orlando","FL","32806","3391","ORANGE" 
"Las Brisas Grocery",-80.094383,26.92716,"750 S Old Dixie Hwy","Ste 4","Jupiter","FL","33458","7277","PALM BEACH" 
"WALGREEN 06744",-81.874298,30.062536,"2675 Blanding Blvd","","Middleburg","FL","32068","5171","CLAY" 
"WALGREEN 06922",-81.365799,28.66214,"113 Maitland Ave","","Altamonte Springs","FL","32701","4901","SEMINOLE" 
"MIAMI BAKERY 2",-80.231506,25.79422,"1990 NW 22nd Ave","","Miami","FL","33125","1326","MIAMI DADE" 
"Walgreen 04708",-81.639839,28.120802,"35800 Hwy 27","","Haines City","FL","33844","3735","POLK" 
"Walgreen 04442",-81.435822,28.260696,"3298 S John Young Pkwy","","Kissimmee","FL","34746","6550","OSCEOLA" 
"Walgreen 05339",-81.422462,28.365681,"13880 Towne Place Blvd","","Orlando","FL","32837","3345","ORANGE" 
"Walgreen 07460",-81.424362,28.409809,"10801 S John Young Pkwy","","Orlando","FL","32837","7319","ORANGE" 
"Walgreen 07468",-82.010323,28.981228,"8591 SE 165th Mulberry Ln","","Lady Lake","FL","32162","5846","SUMTER" 
"Walgreen 07273",-81.707512,28.546787,"2590 E Highway 50","","Clermont","FL","34711","6050","LAKE" 
"Walgreen 07219",-81.617638,28.261759,"8265 Champions Gate Blvd","","Champions Gate","FL","33896","8387","POLK" 
"Walgreen 07109",-81.587105,28.505341,"3600 Winter Garden Vineland Rd","","Winter Garden","FL","34787","5482","ORANGE" 
"Walgreen 06217",-81.658562,28.254906,"45549 Highway 27","","Davenport","FL","33897","4519","POLK" 
"Walgreen 06528",-81.718674,28.49918,"4400 S Highway 27","","Clermont","FL","34711","5383","LAKE" 
"Walgreen 06163",-81.892227,28.838299,"2010 Citrus Blvd","","Leesburg","FL","34748","3005","LAKE" 
"Walgreen 05809",-81.687691,28.875868,"2005 N State Road 19","","Eustis","FL","32726","6782","LAKE" 
"Walgreen 05779",-81.687378,28.829239,"101 W Ardice Ave","","Eustis","FL","32726","6240","LAKE" 
"Walgreen 07726",-81.362381,28.344713,"2050 E Osceola Pkwy","","Kissimmee","FL","34743","8602","OSCEOLA" 
"WALGREEN 07098",-80.112572,26.645163,"2187 S Military Trl","","West Palm Beach","FL","33415","6453","PALM BEACH" 
"WALGREEN 01222",-87.274788,30.533358,"20 WEST NINE MILE RD","","PENSACOLA","FL","32534","","ESCAMBIA" 
"WALGREEN 04847",-85.648849,30.237371,"1402 Ohio Ave","","Lynn Haven","FL","32444","3743","BAY" 
"WALGREEN 04848",-86.642029,30.425755,"414C Mary Esther Cut Off NW","","Fort Walton Beach","FL","32548","4060","OKALOOSA" 
"WALGREEN 04913",-86.426857,30.388908,"34909 Emerald Coast Pkwy","","Destin","FL","32541","3446","OKALOOSA" 
"WALGREEN 05340",-85.800041,30.178543,"9998 Front Beach Rd","","Panama City Beach","FL","32407","4137","BAY" 
"WALGREEN 05581",-87.196655,30.488739,"6314 N 9th Ave","","Pensacola","FL","32504","7320","ESCAMBIA" 
"WALGREEN 05582",-86.638451,30.44891,"825 Beal Pkwy NW","","Fort Walton Beach","FL","32547","1955","OKALOOSA" 
"WALGREEN 05757",-87.160782,30.599445,"3909 Highway 90","","Pace","FL","32571","1915","SANTA ROSA" 
"WALGREEN 06210",-87.062393,30.389961,"1459 Tiger Park Ln","","Gulf Breeze","FL","32563","5720","SANTA ROSA" 
"WALGREEN 06578",-86.478554,30.388638,"977 Highway 98 E","","Destin","FL","32541","2801","OKALOOSA" 
"WALGREEN 06811",-86.565483,30.736429,"2350 S Ferdon Blvd","","Crestview","FL","32536","8461","OKALOOSA" 
"WALGREEN 06978",-86.412903,30.481073,"4582 E Highway 20","","Niceville","FL","32578","9724","OKALOOSA" 
"NAFIS FOOD CORPORATION",-80.057816,26.603413,"1001 S Dixie Hwy","","Lake Worth","FL","33460","5115","PALM BEACH" 
"EL GUAJIRO MEAT MARKET",-80.267334,25.890165,"12705 NW 42ND AVE","SUITE A17 A18","Opa Locka","FL","33054","5117","MIAMI DADE" 
"MR GROCER",-80.135864,26.27623,"3701 NW 9th Ave","","Pompano Beach","FL","33064","1944","BROWARD" 
"LOS ANDES FOOD STORE",-80.153671,25.932291,"17010 WEST DIXIE HWY","","NORTH MIAMI BEACH","FL","33160","","MIAMI DADE" 
"RAINBOW FOOD MART",-82.700226,27.849609,"8592 49th St","","Pinellas Park","FL","33781","1554","PINELLAS" 
"EL RANCHITO",-81.614204,28.130451,"2555 US Highway 17 92 N","","Haines City","FL","33844","9595","POLK" 
"CVS PHARMACY 7894",-80.435486,27.748184,"8495 US Highway 1","","Vero Beach","FL","32967","5661","INDIAN RIVER" 
"CVS PHARMACY 7935",-80.268707,27.236437,"2651 NW Federal Hwy","","Stuart","FL","34994","9317","MARTIN" 
"WALGREEN 04523",-82.317703,27.923939,"930 Providence Rd","","Brandon","FL","33511","8842","HILLSBOROUGH" 
"LA SUPREMA GROCERY CORP",-81.4291,28.472189,"4156 W Oak Ridge Rd","","Orlando","FL","32809","4438","ORANGE" 
"DOLLAR GENERAL 9858",-81.472031,28.538651,"6536 Old Winter Garden Rd","","Orlando","FL","32835","1206","ORANGE" 
"AZIZ DISCOUNT FOOD STOP AND BEAUTY SUPPLY",-80.165253,25.912073,"1691 NE 148th St","","Miami","FL","33181","1027","MIAMI DADE" 
"CHORI 99 PLUS",-80.307594,25.8857,"6905 W 12th Ave","Ste 7","Hialeah","FL","33014","5117","MIAMI DADE" 
"EXPRESS FOOD STOP",-80.190338,26.121111,"3306 W Broward Blvd","","Ft Lauderdale","FL","33312","1115","BROWARD" 
"TORMAC CORPORATION",-80.254318,25.743921,"2537 SW 37th Ave","","Miami","FL","33133","2043","MIAMI DADE" 
"DOLLAR GENERAL 1418",-81.875076,28.816992,"610 N Palmetto St","","Leesburg","FL","34748","4417","LAKE" 
"DOLLAR GENERAL 1522",-80.669388,28.078716,"2935 W New Haven Ave","","Melbourne","FL","32904","3657","BREVARD" 
"DOLLAR GENERAL 1919",-81.943245,26.489828,"17284 SAN CARLOS BLVD","","FT MYERS BEACH","FL","33931","5328","LEE" 
"DOLLAR GENERAL 3564",-80.592789,28.185444,"1024 Highway A1a","Ste 160","Satellite Beach","FL","32937","2332","BREVARD" 
"DOLLAR GENERAL 7121",-82.053719,29.163507,"2484 SE 58th Ave","","Ocala","FL","34480","6450","MARION" 
"PUBLIX 1028",-81.377029,30.150974,"3777 Palm Valley Rd","","Ponte Vedra Beach","FL","32082","4115","ST JOHNS" 
"SAVE-A-LOT 174",-82.040665,28.859734,"356 Shopping Center Dr","","Wildwood","FL","34785","4533","SUMTER" 
"HARBA FOOD STORE",-80.199646,25.783653,"1003 NW 3rd Ave","","Miami","FL","33136","3307","MIAMI DADE" 
"QWIK WAY #4",-81.791039,27.752024,"724 E Broadway St","","Fort Meade","FL","33841","3143","POLK" 
"FREDS STORE 2248",-87.051094,30.618118,"6522 Caroline St","","Milton","FL","32570","4778","SANTA ROSA" 
"FREDS STORE 1163",-85.684479,30.771364,"1718 S Waukesha St","","Bonifay","FL","32425","3114","HOLMES" 
"DOLLAR GENERAL 0526",-81.737114,28.763918,"4149 County Road 561","","Tavares","FL","32778","9371","LAKE" 
"DOLLAR GENERAL 1332",-82.400635,28.545998,"856 S Broad St","","Brooksville","FL","34601","3105","HERNANDO" 
"DOLLAR GENERAL 7753",-82.326843,27.874823,"7409 US Highway 301 S","","RIVERVIEW","FL","33569","","HILLSBOROUGH" 
"DOLLAR GENERAL 9892",-81.592545,29.643417,"264 S US Highway 17","","East Palatka","FL","32131","6059","PUTNAM" 
"DOLLAR GENERAL 10061",-80.156151,26.216591,"1000 S POWERLINE RD","","POMPANO BEACH","FL","33069","","BROWARD" 
"PRICE CHOICE FOOD MARKET #8",-80.274971,25.939688,"4500 NW 183rd St","","Miami Gardens","FL","33055","3045","MIAMI DADE" 
"WALGREEN 04809",-80.25148,25.750069,"3595 SW 22nd St","","Miami","FL","33145","3012","MIAMI DADE" 
"MAMAS MEAT AND FISH MARKET",-80.154312,26.152132,"1920 NW 9th Ave","","Ft Lauderdale","FL","33311","4002","BROWARD" 
"CITGO COLONIAL",-81.405212,28.552843,"1916 W Colonial Dr","","Orlando","FL","32804","7014","ORANGE" 
"SHOP-N-GO",-82.054771,28.613359,"374 N Market Blvd","","Webster","FL","33597","9458","SUMTER" 
"PRESIDENT SUPERMARKET 22",-80.36908,25.701088,"10855 SW 72nd St","Ste 33","Miami","FL","33173","2720","MIAMI DADE" 
"PRESIDENT SUPERMARKET 12",-80.355301,25.731758,"9875 SW 40th St","","Miami","FL","33165","3977","MIAMI DADE" 
"BLUE NILE FOOD MARKET II INC",-82.655106,27.752043,"1600 18th Ave S","","St Petersburg","FL","33712","3202","PINELLAS" 
"WALGREEN 01800",-81.459152,28.495464,"4578 S Kirkman Rd","","Orlando","FL","32811","2848","ORANGE" 
"WALGREEN 06505",-81.459496,28.530231,"920 S Kirkman Rd","","Orlando","FL","32811","2203","ORANGE" 
"CORNER FOOD STORE",-80.162041,25.92984,"16701 NE 19th Ave","","North Miami Beach","FL","33162","3105","MIAMI DADE" 
"PUBLIX 1108",-80.396957,25.579302,"20201 SW 127th Ave","","Miami","FL","33177","5119","MIAMI DADE" 
"ATREL SUPERMARKET INC",-80.140793,26.146154,"1521 NE 4th Ave","","Fort Lauderdale","FL","33304","1012","BROWARD" 
"STOP ONE GROCERY INC",-81.583527,28.559139,"515 S Dillard St","","Winter Garden","FL","34787","3580","ORANGE" 
"SUPER SUPER MARKET",-80.202126,26.121986,"109 N State Road 7","","Plantation","FL","33317","3129","BROWARD" 
"PEPE'S TIENDIA MEXICANA",-82.25045,29.186659,"7915 W Highway 40","","Ocala","FL","34482","4496","MARION" 
"DOLLAR GENERAL 7847",-81.746773,30.17115,"311 BLANDING BLVD STE301","","ORANGE PARK","FL","32073","4362","CLAY" 
"Dollar General 1515",-81.674507,28.916119,"607 S Central Ave","","Umatilla","FL","32784","9504","LAKE" 
"DOLLAR GENERAL 3728",-81.433258,28.612663,"4300 Clarcona Ocoee Rd","Ste 210","Orlando","FL","32810","4179","ORANGE" 
"Dollar General 7662",-82.4338,27.722767,"503 N US Highway 41","","Ruskin","FL","33570","3766","HILLSBOROUGH" 
"ONE STOP SHOP",-82.335236,27.994961,"5320 N Falkenburg Rd","","Tampa","FL","33610","5924","HILLSBOROUGH" 
"DOLLAR GENERAL 8043",-82.084534,29.590031,"6925 SE US Highway 301","","Hawthorne","FL","32640","3966","ALACHUA" 
"DOLLAR GENERAL 8602",-82.609024,29.646448,"25150 W Newberry Rd","","Newberry","FL","32669","4250","ALACHUA" 
"DOLLAR GENERAL 9256",-82.796005,27.981239,"1600 N Myrtle Ave","","Clearwater","FL","33755","2549","PINELLAS" 
"DOLLAR GENERAL 9829",-81.946434,28.126268,"6525 N Socrum Loop Rd","","Lakeland","FL","33809","4180","POLK" 
"WHOLE FOODS MARKET 10188",-80.093414,26.848858,"11701 LAKE VICTORIA GARDENS BLVD","","PALM BEACH GARDEN","FL","33410","2706","PALM BEACH" 
"BAWA FOOD MARKET",-80.225845,25.859138,"9300 NW 17th Ave","","Miami","FL","33147","3106","MIAMI DADE" 
"DREAM CARIBBEAN SUPERMARKET",-81.385201,28.465342,"616 W Lancaster Rd","","Orlando","FL","32809","5908","ORANGE" 
"ANGELOS FOOD MART",-82.665565,27.817688,"5050 Haines Rd N","","St Petersburg","FL","33714","2538","PINELLAS" 
"FLOWERS BAKERY THRIFT STORE 50000056",-82.386879,29.703253,"4115 NW 53rd Ave","","Gainesville","FL","32653","4404","ALACHUA" 
"WALGREEN 02378",-81.29969,28.98489,"2400 S Woodland Blvd","","Deland","FL","32720","8636","VOLUSIA" 
"WALGREEN 04423",-81.022652,29.210285,"100 S Ridgewood Ave","","Daytona Beach","FL","32114","4316","VOLUSIA" 
"WALGREEN 04699",-81.303215,29.054712,"100 E International Speedway Blvd","","Deland","FL","32724","2374","VOLUSIA" 
"WALGREEN 07241",-81.259697,28.91024,"1700 N Normandy Blvd","","Deltona","FL","32725","4504","VOLUSIA" 
"PUBLIX 1111",-82.437592,29.628103,"2755 SW 91st St","","Gainesville","FL","32608","2749","ALACHUA" 
"WALGREEN 04773",-80.145508,26.181137,"110 NE 44th St","","Oakland Park","FL","33334","1440","BROWARD" 
"WALGREEN 06221",-80.128181,26.137379,"1515 E Sunrise Blvd","","Ft Lauderdale","FL","33304","2332","BROWARD" 
"WALGREEN 03793",-82.739815,28.224186,"4510 Trouble Creek Rd","","New Port Richey","FL","34652","","PASCO" 
"WALGREEN 03836",-82.709373,28.293446,"9332 US Highway 19","","Port Richey","FL","34668","4772","PASCO" 
"DOLLAR GENERAL 2404",-81.604004,30.174742,"11018 Old Saint Augustine Rd","","Jacksonville","FL","32257","1080","DUVAL" 
"PUBLIX 1034",-82.783302,27.894751,"10411 Ulmerton Rd","","Largo","FL","33771","3530","PINELLAS" 
"PUBLIX 1018",-80.146416,26.438459,"16130 Jog Rd","","Delray Beach","FL","33446","2319","PALM BEACH" 
"PUBLIX 1029",-80.413948,25.498823,"3060 NE 41st Ter","","Homestead","FL","33033","6619","MIAMI DADE" 
"WALGREEN 04289",-82.599648,28.491091,"4255 Commercial Way","","Spring Hill","FL","34606","2326","HERNANDO" 
"ASIAN FOOD & GIFT MARKET",-80.148384,26.317802,"3280 W Hillsboro Blvd","","Deerfield Beach","FL","33442","9401","BROWARD" 
"WALGREEN 05131",-82.666222,28.309589,"10401 Little Rd","","New Port Richey","FL","34654","2505","PASCO" 
"WALGREEN 05604",-82.188583,28.249981,"6429 Gall Blvd","","Zephyrhills","FL","33542","2570","PASCO" 
"WALGREEN 06412",-82.349663,28.236387,"28115 Wesley Chapel Blvd","","Zephyrhills","FL","33543","3204","PASCO" 
"WALGREEN 06752",-82.666794,28.184696,"1841 Little Rd","","Trinity","FL","34655","5301","PASCO" 
"LA NUEVA VICTORIA BAKERY",-80.338211,25.884144,"2750 W 68th St","Ste 117","Hialeah","FL","33016","5448","MIAMI DADE" 
"AZTECA SUPERCENTRO 2000 INC",-81.43708,26.699661,"4269 S State Route 29","","LA BELLE","FL","33935","","HENDRY" 
"ROWES SUPERMARKETS",-81.74295,30.247881,"5435 Blanding Blvd","","Jacksonville","FL","32244","1944","DUVAL" 
"FERRELLS SEAFOOD",-81.64817,30.388567,"7664 N Main St","","Jacksonville","FL","32208","4128","DUVAL" 
"CONCORD COUNTRY STORE",-84.364418,30.656059,"4354 Concord Rd","","Havana","FL","32333","4003","GADSDEN" 
"DOLLAR GENERAL 7793",-82.699974,27.780117,"830 49th St N","","St Petersburg","FL","33710","6612","PINELLAS" 
"DOLLAR GENERAL 9975",-82.953819,29.225365,"7090 SW State Road 24","","Cedar Key","FL","32625","2503","LEVY" 
"DOLLAR GENERAL 10033",-81.4842,28.327789,"4718 Target Blvd","","Kissimmee","FL","34746","5313","OSCEOLA" 
"DOLLAR GENERAL 10104",-80.576416,28.028658,"4500 Dixie Hwy NE","","PALM BAY","FL","32905","","BREVARD" 
"DOLLAR GENERAL 12004",-81.974251,27.935436,"7050 N Church Ave","","Mulberry","FL","33860","2085","POLK" 
"PERRY FOOD MART",-83.588226,30.103516,"1636 S Byron Butler Pkwy","","Perry","FL","32348","5433","TAYLOR" 
"INTERNATIONAL FOOD CLUB",-81.432442,28.508682,"4300 L B McLeod Rd","","Orlando","FL","32811","5686","ORANGE" 
"PRICE CHOICE FOOD MARKET #7",-80.243156,25.860184,"2712 NW 95th St","","Miami","FL","33147","2320","MIAMI DADE" 
"WAL-MART SUPERCENTER 5391",-81.763664,26.240768,"5420 CORMORANT AVE","","NAPLES","FL","34109","","COLLIER" 
"FERNANDINA FOOD MART",-81.451874,30.667145,"201 S 14th St","","Fernandina Beach","FL","32034","3215","NASSAU" 
"WAL-MART SUPERCENTER 5455",-80.641472,27.998653,"1040 Malabar Rd SE","","Palm Bay","FL","32907","3251","BREVARD" 
"DOLLAR GENERAL 8797",-80.195045,26.244488,"5000 Coconut Creek Pkwy","","Margate","FL","33063","2833","BROWARD" 
"DOLLAR GENERAL 12001",-81.639839,28.122826,"35922 Hwy 27","","Haines City","FL","33844","3737","POLK" 
"EL OSO POLAR SUPERMARKET",-80.232979,25.801941,"2253 NW 28th St","","Miami","FL","33142","5905","MIAMI DADE" 
"JIFFY FOOD STORE 000",-81.206757,28.241814,"5800 E Irlo Bronson Memorial Hwy","","Saint Cloud","FL","34771","8741","OSCEOLA" 
"RIVER STOP",-85.813683,30.773523,"4419 Old Spanish Trl","","Caryville","FL","32427","2160","WASHINGTON" 
"OM FOOD STORE",-80.694298,28.133595,"4235 Aurora Rd","","Melbourne","FL","32934","7126","BREVARD" 
"THAI BINH ORIENTAL MARKET",-80.245468,26.009365,"7863 Pines Blvd","","Pembroke Pines","FL","33024","6916","BROWARD" 
"TERESAS GROCERY",-82.442833,28.057289,"11733 N 15th St","","Tampa","FL","33612","5419","HILLSBOROUGH" 
"PUBLIX 1093",-80.252464,27.12487,"6550 S Kanner Hwy","","Stuart","FL","34997","6396","MARTIN" 
"KWIK STOP 7TH AVE",-80.211235,25.900343,"13695 NW 7th Ave","","North Miami","FL","33168","2921","MIAMI DADE" 
"Top Value",-80.24353,25.901175,"13931 NW 27th Ave","","Opa Locka","FL","33054","3652","MIAMI DADE" 
"Bimbo Bakeries 6445",-81.989586,28.984753,"16330 S US Highway 441","","Summerfield","FL","34491","5965","MARION" 
"FAMILY DISCOUNT MART",-81.898041,28.828604,"2201 Griffin Rd","","Leesburg","FL","34748","3318","LAKE" 
"WAYSIDE FOOD STORE",-84.411201,30.662016,"8549 FLORIDA-GA HWY","","HAVANA","FL","32333","","GADSDEN" 
"PUBLIX 1038",-82.369911,29.602118,"5200 SW 34th St","","Gainesville","FL","32608","5010","ALACHUA" 
"CASA BLANCA BAKERY",-80.269295,25.819304,"590 E 4th Ave","","Hialeah","FL","33010","4806","MIAMI DADE" 
"President Supermarket 8",-80.115395,26.673758,"4645 Gun Club Rd","Suite B","West Palm Beach","FL","33415","2850","PALM BEACH" 
"WAL-MART SUPERCENTER 3235",-80.171989,25.925669,"1425 NE 163rd St","","North Miami Beach","FL","33162","4624","MIAMI DADE" 
"WALGREEN 04956",-80.11515,26.588602,"4530 Lantana Rd","","Lake Worth","FL","33463","6908","PALM BEACH" 
"DOLLAR GENERAL 9859",-80.706299,28.386667,"239 Crockett Blvd","","Merritt Island","FL","32953","4384","BREVARD" 
"Dollar General 1391",-81.881393,29.629026,"1114 Hwy 20","","Interlachen","FL","32148","0519","PUTNAM" 
"DOLLAR GENERAL 7377",-82.675964,28.285276,"8859 Little Rd","","New Port Richey","FL","34654","4217","PASCO" 
"D & J ENTERPRISES",-81.947182,29.234529,"12520 NE Highway 314","","Silver Springs","FL","34488","2444","MARION" 
"L AND W",-83.413742,30.449661,"592 SW Harvey Greene Dr","","Madison","FL","32340","4426","MADISON" 
"Dollar General 6455",-81.956749,26.660114,"924 NE Pine Island Rd","","Cape Coral","FL","33909","2552","LEE" 
"MAIN STREET QUICK STOP",-81.654633,30.338806,"1255 N Main St","","Jacksonville","FL","32206","4919","DUVAL" 
"DUNEDIN PRODUCE",-82.775558,28.00441,"390 Patricia Ave","","Dunedin","FL","34698","8126","PINELLAS" 
"TARGET STORE T-1053",-80.706207,28.386223,"250 Crockett Blvd","","Merritt Island","FL","32953","4395","BREVARD" 
"TARGET STORE T-1163",-80.117416,26.16814,"3200 N FEDERAL HWY","","FT LAUDERDALE","FL","33306","","BROWARD" 
"TARGET STORE T-746",-80.437103,25.68479,"15005 SW 88th St","","Miami","FL","33196","1314","MIAMI DADE" 
"TARGET STORE T-1075",-80.373802,25.575527,"20500 SW 112TH AVE","","MIAMI","FL","33189","","MIAMI DADE" 
"TARGET STORE T-1038",-80.158546,25.905914,"14075 Biscayne Blvd","","North Miami Beach","FL","33181","1629","MIAMI DADE" 
"Target T-1300",-81.627686,30.188269,"10490 San Jose Blvd","","Jacksonville","FL","32257","6207","DUVAL" 
"TARGET STORE T-1273",-87.223999,30.532114,"1749 E Nine Mile Rd","","Pensacola","FL","32514","5729","ESCAMBIA" 
"TARGET STORE T-798",-82.549103,28.025778,"6295 W Waters Ave","","Tampa","FL","33634","1100","HILLSBOROUGH" 
"TARGET STORE T-1110",-80.136269,26.618998,"5900 Lake Worth Rd","","Greenacres","FL","33463","3212","PALM BEACH" 
"TARGET STORE T-1131",-82.646881,27.846537,"8151 Dr Martin Luther King Jr St N","","Saint Petersburg","FL","33702","4111","PINELLAS" 
"TARGET STORE T-1023",-82.754051,27.813044,"4450 Park St N","","St Petersburg","FL","33709","4020","PINELLAS" 
"TARGET STORE T-799",-82.462791,27.337772,"5350 Fruitville Rd","","Sarasota","FL","34232","6401","SARASOTA" 
"TARGET STORE T-898",-81.338379,28.671309,"4410 S US Highway 17/92","","Casselberry","FL","32707","3290","SEMINOLE" 
"Dollar General 10242",-81.783936,30.322659,"8111 W Beaver St","","Jacksonville","FL","32220","2621","DUVAL" 
"LADY LAKE DISCOUNT BEVERAGE",-81.920166,28.913385,"207 S HWY 27-441","","LADY LAKE","FL","32159","3779","LAKE" 
"Mr. Bills' Grocer",-80.217606,26.193708,"5100 W Commercial Blvd","","Tamarac","FL","33319","2834","BROWARD" 
"WALGREEN 01172",-80.199936,26.368059,"9851 Glades Rd","","Boca Raton","FL","33434","3918","PALM BEACH" 
"WALGREEN 05153",-80.241371,26.165157,"7229 W Oakland Park Blvd","","Lauderhill","FL","33313","1004","BROWARD" 
"FREDS STORE 2378",-83.870132,30.55451,"1150 N Jefferson St","","Monticello","FL","32344","2247","JEFFERSON" 
"MAGIC MARKET",-81.732918,28.033974,"1250 6th St NW","","Winter Haven","FL","33881","2361","POLK" 
"PRESIDENT SUPERMARKET 14",-80.303505,25.847954,"1060 W 29th St","","Hialeah","FL","33012","5060","MIAMI DADE" 
"President Supermarket 11",-80.26548,25.771677,"4275 W FLAGLER STREET","","MIAMI","FL","33126","","MIAMI DADE" 
"PUBLIX 1032",-82.334923,27.79352,"13154 US Highway 301 S","","Riverview","FL","33578","7410","HILLSBOROUGH" 
"FREDS STORE 2253",-83.400719,30.469149,"935 E US 90","","Madison","FL","32340","","MADISON" 
"TARGET STORE T-815",-80.323944,26.144926,"12801 W SUNRISE BLVD","","SUNRISE","FL","33323","","BROWARD" 
"TARGET STORE T-818",-81.871277,26.542849,"13711 S TAMIAMI TRL","","FORT MYERS","FL","33912","","LEE" 
"Target T-2022",-80.251572,26.04804,"5800 S University Dr","","Davie","FL","33328","6102","BROWARD" 
"TARGET STORE T-2059",-81.786911,26.483734,"10000 Gulf Center Dr","","Fort Myers","FL","33913","8961","LEE" 
"BRAVO SUPERMARKET",-80.374214,27.260134,"2820 SW Port St Lucie Blvd","","Port Saint Lucie","FL","34953","2883","ST LUCIE" 
"FRUIT EMPORIUM",-80.25457,26.179102,"7792 NW 44th St","","Lauderhill","FL","33351","6204","BROWARD" 
"ANTASHA'S WEST INDIAN GROCERY STORE",-81.416153,28.303627,"1314 N John Young Pkwy","","Kissimmee","FL","34741","4110","OSCEOLA" 
"Dollar General 1456",-80.829994,27.209393,"3601 US Highway 441 S","","Okeechobee","FL","34974","6234","OKEECHOBEE" 
"Dollar General 6536",-81.917793,28.812057,"3356 W Main St","","Leesburg","FL","34748","9712","LAKE" 
"Dollar General 7320",-80.146469,26.161924,"2797 N Andrews Ave","","Wilton Manors","FL","33311","2561","BROWARD" 
"GENERAL FOOD STORE",-80.277534,25.940342,"18350 NW 47th Ave","","Miami Gardens","FL","33055","2934","MIAMI DADE" 
"WAL-MART SUPERCENTER 5264",-82.488914,27.193045,"13140 TAMIAMI TRL","","OSPREY","FL","34229","","SARASOTA" 
"PEACE FOOD STORE",-81.405403,28.532421,"794 S Tampa Ave","","Orlando","FL","32805","3646","ORANGE" 
"TNT SEAFOOD AND CRABS",-81.686539,29.635578,"180 Davis Lake Rd","","Palatka","FL","32177","8585","PUTNAM" 
"WALGREEN 05334",-80.138901,26.619284,"6025 Lake Worth Rd","","Greenacres","FL","33463","4288","PALM BEACH" 
"WALGREEN 03862",-81.310364,28.494862,"4774 S Semoran Blvd","","Orlando","FL","32822","2412","ORANGE" 
"WALGREEN 05245",-81.367973,28.755281,"1201 S International Pkwy","","Lake Mary","FL","32746","1615","SEMINOLE" 
"WALGREEN 05658",-81.371231,28.512915,"408 E Michigan St","","Orlando","FL","32806","4542","ORANGE" 
"WOO SUNG ORIENTAL FOOD MART",-81.408722,28.605085,"5079 Edgewater Dr","","Orlando","FL","32810","5226","ORANGE" 
"KWIK STOP",-80.214203,26.017473,"6300 Johnson St","","Hollywood","FL","33024","7722","BROWARD" 
"QUICK WAY FOOD STORE",-81.690102,30.317451,"740 Stockton St","","Jacksonville","FL","32204","3424","DUVAL" 
"ELI'S WEST INDIAN GROCERY",-80.671638,28.031881,"5108 Minton Rd NW","","Palm Bay","FL","32907","1167","BREVARD" 
"6 BROTHERS",-86.61924,30.415739,"33 Robinwood Dr NW","","Fort Walton Beach","FL","32548","4868","OKALOOSA" 
"Coral Supermarket",-80.255302,25.76911,"275 SW 37th Ave","","Miami","FL","33135","1024","MIAMI DADE" 
"EL INDIO BAKERY CAFETERIA",-80.274712,25.860338,"4164 E 4th Ave","","Hialeah","FL","33013","2304","MIAMI DADE" 
"SHAHRAZAD MARKET",-82.740387,28.137503,"40186 US Highway 19 N","","Tarpon Springs","FL","34689","8334","PINELLAS" 
"GROCERY OUTLET 7706",-87.31723,30.421843,"8187 W FAIRFIELD DRIVE","","PENSACOLA","FL","32506","","ESCAMBIA" 
"CIRCLE K 5976",-81.2929,28.21155,"2901 Canoe Creek Rd","","Saint Cloud","FL","34772","6504","OSCEOLA" 
"CIRCLE K 5979",-81.283157,28.911243,"1030 Saxon Blvd","","Orange City","FL","32763","8467","VOLUSIA" 
"KANGAROO EXPRESS 1066",-81.273132,28.794592,"1920 S French Ave","","Sanford","FL","32771","3846","SEMINOLE" 
"FRESHCO Supermarket #4",-81.387917,28.339825,"3081 Michigan Ave","","Kissimmee","FL","34744","1564","OSCEOLA" 
"NORMANS FOOD STORE 2",-81.69622,30.313318,"2725 Post St","","Jacksonville","FL","32205","7621","DUVAL" 
"SILVER 7 FOOD MART",-82.476242,27.996086,"1701 W Hillsborough Ave","","Tampa","FL","33603","1130","HILLSBOROUGH" 
"CIRO MEAT MARKET",-80.377197,25.591364,"18904 SW 114th Ave","","Miami","FL","33157","7519","MIAMI DADE" 
"EL MARIACHI SUPERMARKET",-80.127525,26.228418,"203 SW 2nd Ct","","Pompano Beach","FL","33060","4646","BROWARD" 
"WALGREEN 01339",-82.67382,27.719398,"3077 54th Ave S","","St Petersburg","FL","33712","4613","PINELLAS" 
"PUBLIX 1042",-81.196877,29.600307,"5415 N Oceanshore Blvd","","Palm Coast","FL","32137","3217","FLAGLER" 
"PUBLIX 1045",-81.243858,28.247581,"1951 S Narcoossee Rd","","Saint Cloud","FL","34771","7211","OSCEOLA" 
"PUBLIX 1117",-82.709084,28.012983,"2514 N McMullen Booth Rd","","Clearwater","FL","33761","4150","PINELLAS" 
"DOLLAR GENERAL 7988",-82.421082,27.996128,"3502 E Hillsborough Ave","","Tampa","FL","33610","4536","HILLSBOROUGH" 
"DOLLAR GENERAL 10258",-81.576439,30.193619,"5285 Shad Rd","Ste 303","Jacksonville","FL","32257","2039","DUVAL" 
"DOLLAR GENERAL 10270",-82.756645,28.1399,"750 S Pinellas Ave","","Tarpon Springs","FL","34689","3710","PINELLAS" 
"DOLLAR GENERAL 10338",-82.780304,28.049679,"2604 Bayshore Blvd","","Dunedin","FL","34698","1801","PINELLAS" 
"KANGAROO EXPRESS 1421",-82.217888,29.186363,"5986 W Highway 40","","Ocala","FL","34482","5576","MARION" 
"TAN PHAT ORIENTAL MARKET",-82.484314,28.023502,"8202 N Armenia Ave","","Tampa","FL","33604","2732","HILLSBOROUGH" 
"Super Carnaval Grocery",-81.861855,26.613117,"3517 Fowler St","","Fort Myers","FL","33901","0925","LEE" 
"NOVED GAS MART",-83.551888,30.052811,"5220 US Highway 19 S","","Perry","FL","32348","5769","TAYLOR" 
"MICHAEL'S FOOD STORE",-82.824089,27.901035,"1787 Indian Rocks Rd S","","Largo","FL","33774","1028","PINELLAS" 
"WALGREEN 09535",-86.879189,30.401768,"8220 Navarre Pkwy","","Navarre","FL","32566","6943","SANTA ROSA" 
"WALGREEN 07916",-82.402748,28.539864,"20020 Cortez Blvd","","Brooksville","FL","34601","3834","HERNANDO" 
"WALGREEN 09300",-82.501778,28.127773,"3890 Van Dyke Rd","","Lutz","FL","33548","4800","HILLSBOROUGH" 
"MAXO SUPERMARKET",-80.075233,26.4657,"210 SE 2nd St","","Delray Beach","FL","33483","4504","PALM BEACH" 
"TWO SISTERS COUNTRY STORE",-82.984215,29.750257,"10252 NE 349 Hwy","","Old Town","FL","32680","2688","DIXIE" 
"PUBLIX 1037",-81.774635,30.295916,"7749 NORMANDY BLVD","","JACKSONVILLE","FL","32221","","DUVAL" 
"CIRCLE K 1718",-87.241051,30.420708,"2020 W Cervantes St","","Pensacola","FL","32501","2759","ESCAMBIA" 
"SHOP MART",-80.269424,25.823069,"595 Hialeah Dr","","Hialeah","FL","33010","5362","MIAMI DADE" 
"CIRCLE K 5073",-87.424866,30.31756,"13440 Perdido Key Dr","","Pensacola","FL","32507","9603","ESCAMBIA" 
"PEOPLE'S MARKET",-80.080338,26.461496,"712 W Atlantic Ave","","Delray Beach","FL","33444","2560","PALM BEACH" 
"PRIMO SUPERMARKET",-80.21064,25.809931,"918 NW 36th St","","Miami","FL","33127","3042","MIAMI DADE" 
"BYPASS FARMERS MARKET",-87.05648,30.622875,"5177 Dogwood Dr","","Milton","FL","32570","4578","SANTA ROSA" 
"PUBLIX 1039",-81.762108,26.70076,"11851 Palm Beach Blvd","","Fort Myers","FL","33905","5912","LEE" 
"MARYLOU'S GENERAL STORE",-81.126343,26.641619,"115 Avenida del Clb","","Clewiston","FL","33440","","HENDRY" 
"RIGGINS SEAFOOD MARKET",-80.067841,26.588739,"607 Ridge Rd","","Lantana","FL","33462","1523","PALM BEACH" 
"Dollar General 6524",-82.473183,28.256927,"6806 Land O Lakes Blvd","","Land O Lakes","FL","34638","3227","PASCO" 
"R & B PRODUCE",-80.341087,27.272982,"348 SE Port St Lucie Blvd","","Port St Lucie","FL","34984","5111","ST LUCIE" 
"PUBLIX 1007",-81.908554,26.682407,"3015 NE Pine Island Rd","","Cape Coral","FL","33909","6515","LEE" 
"FAMILY GROCERY FOOD MART",-81.873711,28.809092,"223 S Canal St","","Leesburg","FL","34748","5952","LAKE" 
"A&M DISCOUNT BEVERAGE",-80.112648,26.638119,"2650 S Military Trl","Ste 21","West Palm Beach","FL","33415","7507","PALM BEACH" 
"LA TAPATIA SUPERMARKET",-80.119087,26.678667,"4927 Southern Blvd","","West Palm Beach","FL","33415","2004","PALM BEACH" 
"STAR DELI FOOD STORE",-82.666824,27.777489,"2451 5th Ave N","","St Petersburg","FL","33713","7007","PINELLAS" 
"ELLEN'S ORIENTAL",-81.773666,30.24815,"7628 103rd St","Ste 4","Jacksonville","FL","32210","8719","DUVAL" 
"EZ PRIZE 1 INC",-81.427956,28.472305,"4035 W Oak Ridge Rd","","Orlando","FL","32809","3604","ORANGE" 
"MONAR MARKET",-80.214828,25.832003,"1108 NW 62nd St","","Miami","FL","33150","4219","MIAMI DADE" 
"JR'S FOOD STORE",-80.240494,25.818901,"4825 NW 27th Ave","","Miami","FL","33142","3530","MIAMI DADE" 
"MEAT GIANT CORPORATION",-80.433548,25.512239,"27455 S Dixie Hwy","","Homestead","FL","33032","8231","MIAMI DADE" 
"LATINOS MEAT MARKET INC",-80.126427,26.317863,"1718 W Hillsboro Blvd","","Deerfield Beach","FL","33442","1531","BROWARD" 
"K & C ORIENTAL MARKET",-80.670555,28.135904,"2900 Aurora Rd","","Melbourne","FL","32935","2063","BREVARD" 
"HILLIARD MEATS INC",-81.912361,30.683493,"551424 US Highway 1","","Hilliard","FL","32046","8285","NASSAU" 
"CHUNG HING ORIENTAL MART",-80.162949,25.926058,"1855 NE 163rd St","","North Miami Beach","FL","33162","4805","MIAMI DADE" 
"FJ SUPERMARKET INC",-81.350891,28.30286,"1200 Simpson Rd","","Kissimmee","FL","34744","4602","OSCEOLA" 
"PUBLIX  0453",-81.72847,26.211838,"5991 Pine Ridge Rd","","Naples","FL","34119","3956","COLLIER" 
"EDOUARD RETAIL",-81.859901,26.611212,"3592 Evans Ave","","Fort Myers","FL","33901","8318","LEE" 
"CJ&Z FOOD STORE",-81.722633,30.340118,"1097 Melson Ave","","Jacksonville","FL","32254","2580","DUVAL" 
"I & S FOOD STORE",-81.587509,30.330769,"6812 Lillian Rd","","Jacksonville","FL","32211","5824","DUVAL" 
"ADOLPHE TAKEOUT RESTAURANT & FLEA MARKET",-80.195038,25.842363,"64 NE 73rd St","","Miami","FL","33138","5350","MIAMI DADE" 
"SUNRISE FOOD MART 58",-82.304764,29.673859,"1542 NE 23rd Ave","","Gainesville","FL","32609","3907","ALACHUA" 
"MARTINEZ DISTRIBUTORS CORP",-80.317032,25.802101,"3081 NW 74th Ave","","Miami","FL","33122","1427","MIAMI DADE" 
"C & D PRODUCE OUTLET SOUTH INC",-80.09127,26.617678,"3133 LAKE WORTH ROAD","","LAKE WORTH","FL","33461","","PALM BEACH" 
"C & D PRODUCE OUTLET INC",-80.106873,26.797096,"8195 N Military Trl","","West Palm Beach","FL","33410","","PALM BEACH" 
"WAL-MART SUPERCENTER 2695",-81.730324,28.527708,"1450 Johns Lake Rd","","Clermont","FL","34711","6798","LAKE" 
"WALGREEN 03331",-80.056992,26.627783,"1001 N Dixie Hwy","","Lake Worth","FL","33460","2170","PALM BEACH" 
"WAL-MART SUPERCENTER 3347",-81.649368,27.978369,"7450 CYPRESS GARDENS BLVD","","WINTER HAVEN","FL","33884","","POLK" 
"BRAVO SUPERMARKET",-80.255142,26.153019,"8251 Sunset Strip","","Sunrise","FL","33322","3058","BROWARD" 
"FOOD INC",-80.12323,26.651403,"1892 Abbey Rd","Ste K","West Palm Beach","FL","33415","5688","PALM BEACH" 
"ONE STOP SHOP",-80.112633,26.65666,"1401 S Military Trl","Ste A","West Palm Beach","FL","33415","5641","PALM BEACH" 
"LUCHI'S MEAT MARKET & DELI",-80.134521,26.166605,"882 E Oakland Park Blvd","","Oakland Park","FL","33334","2729","BROWARD" 
"ASIA SUPERMARKET",-80.207649,26.009804,"118 S State Road 7","","Hollywood","FL","33023","6716","BROWARD" 
"Five Star Gas and Food Inc",-81.993935,28.054672,"2340 W Memorial Blvd","","Lakeland","FL","33815","1027","POLK" 
"UNITED BEEF STORE",-87.26992,30.418583,"4207 W Jackson St","","Pensacola","FL","32505","7233","ESCAMBIA" 
"Race Trac 261",-80.451202,25.477457,"1955 NE 8th St","","Homestead","FL","33033","4703","MIAMI DADE" 
"Emperor Food",-80.329956,25.891565,"2297 W 76th St","","Hialeah","FL","33016","1840","MIAMI DADE" 
"WAL-MART NEIGHBORHOOD MARKET 3617",-81.207893,28.536621,"600 S Alafaya Trl","","Orlando","FL","32828","9161","ORANGE" 
"IBEX FOOD MART, INC",-81.738472,30.282127,"5407 San Juan Ave","","Jacksonville","FL","32210","3143","DUVAL" 
"ASIAN GROCERY & LIQUOR INC",-80.676285,28.078999,"3280 W New Haven Ave","","Melbourne","FL","32904","3563","BREVARD" 
"LAKE WEIR GROCERY STORE",-81.908386,29.024458,"13521 S Highway 25","","Ocklawaha","FL","32179","6710","MARION" 
"JEN-SHA ORIENTAL GROCERY",-80.203674,26.191761,"5310 N STATE ROAD 7","","NORTH LAUDERDALE","FL","33319","","BROWARD" 
"THRIFTY SHOPPER",-84.324715,30.493914,"3507 N Monroe St","Ste C","Tallahassee","FL","32303","2756","LEON" 
"WALGREEN 07330",-80.281967,27.259893,"4420 NW Federal Hwy","","Jensen Beach","FL","34957","3101","MARTIN" 
"WALGREEN 09304",-82.374161,29.625362,"3455 SW Archer Rd","","Gainesville","FL","32608","2408","ALACHUA" 
"SUPER ECONOMICO SUPERMARKET",-80.30703,25.871183,"5370 W 12th Ave","","Hialeah","FL","33012","3030","MIAMI DADE" 
"WALGREEN 07458",-80.376167,25.686523,"11190 SW 88th St","","Miami","FL","33176","0901","MIAMI DADE" 
"Dollar General 10452",-80.10955,26.27516,"1028 E Sample Rd","","Pompano Beach","FL","33064","5120","BROWARD" 
"SUNRISE MEATS II",-80.214378,25.883503,"990 NW 119th St","","Miami","FL","33168","2339","MIAMI DADE" 
"21ST & PORT FOOD STORE",-81.635063,30.357454,"1518 E 21st St","","Jacksonville","FL","32206","2521","DUVAL" 
"TARGET STORE T-1973",-84.21537,30.559889,"3700 Bradfordville Rd","","Tallahassee","FL","32309","1943","LEON" 
"TARGET STORE T-2032",-81.286674,28.59516,"3770 N Goldenrod Rd","","Winter Park","FL","32792","8832","ORANGE" 
"TARGET STORE T-2058",-81.939133,28.935665,"716 N US Highway 441","","The Villages","FL","32159","3194","LAKE" 
"TARGET STORE T-2062",-81.667557,28.821199,"17450 US Highway 441","","Mount Dora","FL","32757","6748","LAKE" 
"TARGET STORE T-2064",-82.682777,27.837664,"7150 US Highway 19 N","","Pinellas Park","FL","33781","4602","PINELLAS" 
"TARGET STORE T-2085",-86.481926,30.389339,"853 Highway 98 E","","Destin","FL","32541","2709","OKALOOSA" 
"PHIL-ASIAN FOOD MART",-81.403778,28.324308,"2650 N Orange Blossom Trl","","Kissimmee","FL","34744","1800","OSCEOLA" 
"ANTONIO PENA DISTRIBUTORS",-80.284592,25.843643,"124 W 24th St","","Hialeah","FL","33010","2216","MIAMI DADE" 
"M & M SUPERMARKET",-80.493019,25.462378,"989 W Lucy St","","Florida City","FL","33034","1872","MIAMI DADE" 
"BELLEGLADE MEAT MARKET",-80.682793,26.696808,"1417 NW AVENUE L","","BELLEGLADE","FL","33430","","PALM BEACH" 
"SUPER TARGET STORE T-2067",-80.164009,26.525919,"10201 Hagen Ranch Rd","","Boynton Beach","FL","33437","3758","PALM BEACH" 
"KING CRAB HOUSE",-81.653839,30.35763,"3125 N Main St","","Jacksonville","FL","32206","2124","DUVAL" 
"CASA MARTINEZ CORP",-80.400093,25.64139,"13275 SW 136th St","Bay 31","Miami","FL","33186","5824","MIAMI DADE" 
"LA COMA MEAT & FISH",-80.154541,26.152821,"1923 NW 9th Ave","","Ft Lauderdale","FL","33311","4001","BROWARD" 
"Dollar General 1414",-80.064667,26.587074,"1330 Lantana Rd","","Lantana","FL","33462","1519","PALM BEACH" 
"Dollar General 10484",-82.517952,27.352274,"2628 17th St","","Sarasota","FL","34235","8900","SARASOTA" 
"AMANA FOOD MARKET",-82.407043,28.032593,"4815 E Busch Blvd","Ste 112","Tampa","FL","33617","6093","HILLSBOROUGH" 
"WELAKA FISH & CRAB",-81.671753,29.481045,"676 3rd Ave","","Welaka","FL","32193","","PUTNAM" 
"ANGUS WHOLESALE MEATS",-82.523628,29.035694,"5274 W Dunnellon Rd","","Dunnellon","FL","34433","2624","CITRUS" 
"WALGREEN 09361",-80.412483,25.499331,"3090 NE 43rd Ave","","Homestead","FL","33033","3028","MIAMI DADE" 
"WALGREEN 04962",-82.285027,27.937788,"128 E Brandon Blvd","","Brandon","FL","33511","5219","HILLSBOROUGH" 
"WALGREEN 07694",-81.130058,28.560734,"16900 E Colonial Dr","","Orlando","FL","32820","1911","ORANGE" 
"WALGREEN 07207",-82.218803,29.117111,"6015 SW Highway 200","","Ocala","FL","34476","5557","MARION" 
"KENS CUSTOM MEATS & SEAFOOD INC",-80.664398,28.135887,"2620 Aurora Rd","Ste I","Melbourne","FL","32935","2888","BREVARD" 
"DIXIE WAY SUPER STORE",-80.122383,26.246933,"110 NW 15th St","","Pompano Beach","FL","33060","5435","BROWARD" 
"MERCADO ORIENTAL",-80.121513,25.873247,"201 SW 8th Ave","","Miami","FL","33130","1217","MIAMI DADE" 
"FAMILY DISCOUNT GROCERY LLC",-80.36853,27.299278,"1358 SW Bayshore Blvd","","Port St Lucie","FL","34983","2929","ST LUCIE" 
"FLAGLER ASIAN MARKET",-81.229424,29.549192,"160 Cypress Point Pkwy","Ste A111","Palm Coast","FL","32164","8450","FLAGLER" 
"EL NINO DISCOUNT",-80.20784,25.7759,"200 NW 8th Ave","","Miami","FL","33128","1412","MIAMI DADE" 
"KWIK STOP #1500 INC",-82.774628,27.931997,"1500 Cambridge Dr","","Clearwater","FL","33756","1804","PINELLAS" 
"BELLEGLADE JIFFY",-80.685997,26.679096,"640 SW 16th St","","Belle Glade","FL","33430","3603","PALM BEACH" 
"SAMS FOOD MART",-81.705452,30.319639,"660 McDuff Ave S","","Jacksonville","FL","32205","5659","DUVAL" 
"DOLLAR GENERAL 10506",-80.1605,26.617699,"7201 Lake Worth Rd","Ste C","Lake Worth","FL","33467","2507","PALM BEACH" 
"SANTIAGO DISCOUNT",-80.248245,25.80703,"3405 NW 32nd Ave","","Miami","FL","33142","5730","MIAMI DADE" 
"ROY'S MARKET",-82.097534,29.899586,"12876 SE 21st Ave","","Starke","FL","32091","6916","BRADFORD" 
"LEES MARKET",-81.426201,28.527008,"4001 W COLUMBIA ST","","ORLANDO","FL","32811","","ORANGE" 
"RR & D CONVENIENCE INC",-82.550766,28.892944,"6971 W Gulf to Lake Hwy","","Crystal River","FL","34429","7837","CITRUS" 
"SUNSHINE FOODS OF ST PETERSBURG INC",-82.666954,27.711967,"2210 62nd Ave S","","St Petersburg","FL","33712","5374","PINELLAS" 
"TARGET STORE T-1859",-81.973717,28.093018,"4005 US Highway 98 N","","Lakeland","FL","33809","3815","POLK" 
"TARGET STORE T-1967",-82.666359,28.20043,"2900 Little Rd","","Trinity","FL","34655","4420","PASCO" 
"ORLANDO GROCERY",-81.470322,28.538548,"6435 Old Winter Garden Rd","","Orlando","FL","32835","1380","ORANGE" 
"PUBLIX 1030",-80.431145,27.26803,"10400 SW Village Center Dr","","Port Saint Lucie","FL","34987","2186","ST LUCIE" 
"PUBLIX 1049",-80.11039,26.977934,"502 COUNTYLINE PLAZA","","TEQUESTA","FL","33469","","PALM BEACH" 
"J'S FOOD STORE",-82.180077,28.244823,"6007 12th St","","Zephyrhills","FL","33542","2616","PASCO" 
"FARM STORE 1308",-80.327118,25.935228,"17775 NW 78th Ave","","Hialeah","FL","33015","3629","MIAMI DADE" 
"FARM STORE 110",-80.4459,25.685226,"8753 SW 157th Ave","","Miami","FL","33193","1278","MIAMI DADE" 
"FARM STORE 1306",-80.285339,25.702148,"7420 S Red Rd","","South Miami","FL","33143","5314","MIAMI DADE" 
"FARM STORE 0902",-80.271095,25.823029,"501 Hialeah Dr","","Hialeah","FL","33010","5348","MIAMI DADE" 
"Whole Foods Market 10299",-82.505623,27.956688,"1548 N Dale Mabry Hwy","","Tampa","FL","33607","2551","HILLSBOROUGH" 
"PLACITA SUPERMARKET INC",-81.054649,29.216722,"1110 Mason Ave","","Daytona Beach","FL","32117","4614","VOLUSIA" 
"Miracle Supermarket on Broadway 1",-80.227211,25.838713,"7017 NW 18th Ave","","Miami","FL","33147","6945","MIAMI DADE" 
"MAYFAIR GROCERY INC",-87.267906,30.436178,"4036 W Fairfield Dr","","Pensacola","FL","32505","4733","ESCAMBIA" 
"BARGAIN GROCERY SUPERMARKET",-80.182983,26.150948,"2901 NW 19th St","","Ft Lauderdale","FL","33311","3202","BROWARD" 
"NEBRASKA TEXACO",-82.45118,27.988932,"4802 N Nebraska Ave","","Tampa","FL","33603","4018","HILLSBOROUGH" 
"WAL-MART SUPERCENTER 5300",-82.355576,27.849573,"9205 Gibsonton Dr","","Gibsonton","FL","33534","4608","HILLSBOROUGH" 
"WAL-MART SUPERCENTER 3817",-81.150352,28.536991,"433 Avalon Park South Blvd","","Orlando","FL","32828","6996","ORANGE" 
"CAIRO INTERNATIONAL MARKET INC",-81.488693,28.345251,"3492 Polynesian Isle Blvd","","Kissimmee","FL","34746","4696","OSCEOLA" 
"DOLLAR GENERAL 10310",-85.161346,30.882111,"4376 Bryan St","","Greenwood","FL","32443","2436","JACKSON" 
"CIRCLE K 5098",-81.887566,28.80184,"900 S 14th St","","Leesburg","FL","34748","6654","LAKE" 
"E-Z SAVE",-87.161301,30.590034,"3901 Diamond St","","Pace","FL","32571","2248","SANTA ROSA" 
"207 Express",-81.512192,29.714245,"8880 W Church St","","Hastings","FL","32145","","ST JOHNS" 
"CIRCLE K 5986",-84.269707,30.375692,"6500 Capital Cir SE","","Tallahassee","FL","32305","3435","LEON" 
"CIRCLE K 5987",-84.232704,30.468386,"2799 Miccosukee Rd","","Tallahassee","FL","32308","","LEON" 
"CIRCLE K 5988",-84.161812,30.483601,"3086 Walden Rd","","Tallahassee","FL","32317","7932","LEON" 
"CIRCLE K 5989",-84.227623,30.441816,"2956 E Park Ave","","Tallahassee","FL","32301","3427","LEON" 
"CIRCLE K 5990",-84.251343,30.504162,"3424 Thomasville Rd","","Tallahassee","FL","32309","","LEON" 
"CIRCLE K 5991",-84.367638,30.456938,"5712 W Tennessee St","","Tallahassee","FL","32304","9215","LEON" 
"B & B FOOD STORE",-80.058571,26.719112,"701 N Sapodilla Ave","","West Palm Beach","FL","33401","3841","PALM BEACH" 
"CHEVRON FOOD MART",-80.632874,28.134575,"1709 N Harbor City Blvd","","Melbourne","FL","32935","7603","BREVARD" 
"UNIVERSAL SUPERMARKET",-80.260971,25.947666,"3625 NW 191st St","","Miami Gardens","FL","33056","2939","MIAMI DADE" 
"QUICK STOP AND GO CHIEFLAND GAS STATION",-82.86116,29.489012,"1025 N Young Blvd","","Chiefland","FL","32626","1110","LEVY" 
"PIGGLY WIGGLY 285",-84.612816,30.584333,"18680 Blue Star Hwy","","Quincy","FL","32351","5163","GADSDEN" 
"FAST LINK of NW FL, INC",-87.314224,30.449158,"4914 Cerny Rd","","Pensacola","FL","32526","2646","ESCAMBIA" 
"ORLANDO LATIN MARKET INC",-82.681885,27.799208,"3515 30th Ave N","","St Petersburg","FL","33713","3543","PINELLAS" 
"TARGET STORE T-688",-81.079025,29.182577,"2380 W International Speedway Blvd","","Daytona Beach","FL","32114","1116","VOLUSIA" 
"TARGET STORE T-899",-81.771904,26.211498,"2324 Pine Ridge Rd","","Naples","FL","34109","2003","COLLIER" 
"TARGET STORE T-919",-82.596703,28.494341,"4401 Commercial Way","","Spring Hill","FL","34606","1914","HERNANDO" 
"TARGET STORE T-920",-80.297394,26.007898,"11253 Pines Blvd","","Pembroke Pines","FL","33026","4118","BROWARD" 
"TARGET STORE T-1039",-80.304672,25.692053,"8350 S Dixie Hwy","","Miami","FL","33143","7714","MIAMI DADE" 
"WALGREEN 07589",-82.087776,29.158207,"3500 SE Maricamp Rd","","Ocala","FL","34471","6248","MARION" 
"WALGREEN 2220",-81.76683,30.299726,"7221 Normandy Blvd","","Jacksonville","FL","32205","6260","DUVAL" 
"WALGREEN 07350",-81.632454,30.149517,"12145 San Jose Blvd","","Jacksonville","FL","32223","2636","DUVAL" 
"WALGREEN 07979",-81.831352,30.195623,"9700 Argyle Forest Blvd","","Jacksonville","FL","32222","2809","DUVAL" 
"WALGREEN 09421",-82.030777,29.786552,"115 N Lawrence Blvd","","Keystone Heights","FL","32656","9351","CLAY" 
"WALGREEN 09556",-81.546715,30.142138,"13905 Old Saint Augustine Rd","","Jacksonville","FL","32258","5486","DUVAL" 
"SEDANO'S SUPERMARKET 0035",-80.224396,26.228008,"7208 Southgate Blvd","","North Lauderdale","FL","33068","1426","BROWARD" 
"Tropical Meat & Fish",-80.214622,25.88291,"11800 NW 10th Ave","","Miami","FL","33168","6207","MIAMI DADE" 
"JMJ FOOD MART II INC",-81.97345,27.885466,"1285 State Road 37 S","","Mulberry","FL","33860","","POLK" 
"WALGREEN 09025",-81.736389,30.219063,"5990 Townsend Rd","","Jacksonville","FL","32244","4553","DUVAL" 
"WAL-MART SUPERCENTER 3702",-81.639359,30.477669,"13227 City Square Dr","","Jacksonville","FL","32218","7218","DUVAL" 
"WAL-MART SUPERCENTER 3370",-82.55928,27.521278,"508 10th St E","","Palmetto","FL","34221","4062","MANATEE" 
"PINELLAS MAX FOOD INC",-82.653511,27.752052,"1400 18TH AVE S","","ST PETERSBURG","FL","33705","","PINELLAS" 
"SUPER STORE EXPRESS FOOD STORE",-80.253174,26.17911,"7690 NW 44th St","","Lauderhill","FL","33351","6271","BROWARD" 
"ORTIZ FOOD MART",-81.812195,26.655842,"1214 Ortiz Ave","","Fort Myers","FL","33905","4436","LEE" 
"KWIK STOP 2002 2002",-80.219765,25.803278,"1405 NW 29th St","","Miami","FL","33142","6621","MIAMI DADE" 
"MID TOWN SUPERMARKET INC",-82.658554,27.752012,"1856 18th Ave S","","St Petersburg","FL","33712","3206","PINELLAS" 
"WALGREEN 09517",-82.729019,27.86459,"10196 66th St","","Pinellas Park","FL","33782","3015","PINELLAS" 
"WINN DIXIE 0386",-80.099449,26.174534,"3800 N Ocean Blvd","","Ft Lauderdale","FL","33308","6432","BROWARD" 
"LA SORPRESA PRODUCE MARKET",-80.269981,25.778738,"4501 NW 7th St","","Miami","FL","33126","2306","MIAMI DADE" 
"PUBLIX 0457",-82.59745,28.493538,"4365 Commercial Way","","Spring Hill","FL","34606","1917","HERNANDO" 
"PURE DISCOUNT STORE",-83.411659,30.469362,"296 E Base St","","Madison","FL","32340","2404","MADISON" 
"BRAVO SUPERMARKET",-80.595978,28.034758,"2517 Palm Bay Rd NE","","Palm Bay","FL","32905","3521","BREVARD" 
"INDIA SPICE OF PORT ST LUCIE INC",-80.325821,27.335215,"7145 S US Highway 1","","Port St Lucie","FL","34952","1412","ST LUCIE" 
"KWIK STOP",-81.311699,28.561474,"5604 Old Cheney Hwy","","Orlando","FL","32807","1924","ORANGE" 
"MILLENIA GROCERY",-81.442177,28.478731,"4978 Millenia Blvd","Bldg 3, Suite F","Orlando","FL","32839","6058","ORANGE" 
"EXPRESS FOOD MART TWO",-81.920105,28.039312,"2104 Colonial Ave","","Lakeland","FL","33801","6006","POLK" 
"WAL-MART SUPERCENTER 3309",-81.628036,30.279623,"4250 Phillips Hwy","","Jacksonville","FL","32207","6730","DUVAL" 
"WAL-MART SUPERCENTER 3307",-84.362114,30.215778,"35 Mike Stewart","","Crawfordville","FL","32327","1164","WAKULLA" 
"WAL-MART SUPERCENTER 3387",-82.216072,27.036783,"17000 Tamiami Trl","","North Port","FL","34287","7281","SARASOTA" 
"KINGDOM HARVEST",-80.350441,27.447527,"2520 Orange Ave","","Fort Pierce","FL","34947","3669","ST LUCIE" 
"MACS MINI MART",-82.796066,27.927792,"1207 1/2 Clearwater Largo Rd N","","Largo","FL","33770","1133","PINELLAS" 
"KANGAROO EXPRESS 1423",-82.168861,29.16851,"1986 SW 27th Ave","","Ocala","FL","34471","2019","MARION" 
"PUBLIX 1035",-80.510086,27.767054,"1451 Sebastian Blvd","Ste 200","Sebastian","FL","32958","8200","INDIAN RIVER" 
"PUBLIX 1014",-80.27047,27.161179,"1395 SW Martin Hwy","","Palm City","FL","34990","3373","MARTIN" 
"ORIENTAL MART",-80.251717,26.184408,"4850 N University Dr","","Lauderhill","FL","33351","4510","BROWARD" 
"JAY'S DISCOUNT BEVERAGE",-81.453835,27.515182,"2801 State Road 17 N","","Sebring","FL","33870","2515","HIGHLANDS" 
"SUNRISE FOOD MART",-81.128891,29.140038,"3624 W International Speedway Blvd","","Daytona Beach","FL","32124","1028","VOLUSIA" 
"BJ's WHOLESALE CLUB 032",-80.201965,26.685223,"500 N State Road 7","","Royal Palm Beach","FL","33411","3523","PALM BEACH" 
"BJ's WHOLESALE CLUB 051",-80.382065,25.700928,"7007 SW 117th Ave","","Miami","FL","33183","2805","MIAMI DADE" 
"BJ's WHOLESALE CLUB 054",-80.329674,26.00757,"13700 Pines Blvd","","Pembroke Pines","FL","33027","1510","BROWARD" 
"BJ's WHOLESALE CLUB 091",-80.361343,25.590464,"10425 Marlin Rd","","Cutler Bay","FL","33157","7731","MIAMI DADE" 
"BJ's WHOLESALE CLUB 106",-80.206024,26.318092,"5901 W Hillsboro Blvd","","Parkland","FL","33067","4542","BROWARD" 
"BJ's WHOLESALE CLUB 107",-80.278748,27.255104,"4150 NW Federal Hwy","","Jensen Beach","FL","34957","3624","MARTIN" 
"BJ's WHOLESALE CLUB 108",-81.489029,30.319166,"12200 Atlantic Blvd","","Jacksonville","FL","32225","3006","DUVAL" 
"BJ's WHOLESALE CLUB 109",-80.160019,26.046289,"4000 Oakwood Blvd","","Hollywood","FL","33020","7118","BROWARD" 
"BJ's WHOLESALE CLUB 111",-80.32737,25.859838,"8005 NW 95th St","","Hialeah Gardens","FL","33016","2111","MIAMI DADE" 
"BJ's WHOLESALE CLUB 120",-80.692528,28.361362,"415 E Merritt Ave","","Merritt Island","FL","32953","3426","BREVARD" 
"BJ's WHOLESALE CLUB 125",-81.748756,30.153797,"560 Blanding Blvd","","Orange Park","FL","32073","5005","CLAY" 
"BJ's WHOLESALE CLUB 126",-80.642387,28.035131,"1155 Palm Bay Rd NE","","Palm Bay","FL","32905","3726","BREVARD" 
"BJ's WHOLESALE CLUB 128",-82.452499,27.395163,"8085 Cooper Creek Blvd","","University Park","FL","34201","2028","MANATEE" 
"BJ's WHOLESALE CLUB 129",-80.093681,26.527483,"1540 W Boynton Beach Blvd","","Boynton Beach","FL","33436","4606","PALM BEACH" 
"BJ's WHOLESALE CLUB 130",-81.428932,28.494827,"4697 Millenia Plaza Way","","Orlando","FL","32839","2433","ORANGE" 
"BJ's WHOLESALE CLUB 133",-81.325569,28.811787,"4270 W State Road 46","","Sanford","FL","32771","9035","SEMINOLE" 
"BJ's WHOLESALE CLUB 135",-81.20742,28.546633,"12190 Lake Underhill Rd","","Orlando","FL","32825","5012","ORANGE" 
"BJ's WHOLESALE CLUB 154",-81.413971,28.341326,"1100 W Osceola Pkwy","","Kissimmee","FL","34741","7515","OSCEOLA" 
"BJ's WHOLESALE CLUB 169",-81.932182,26.672167,"1929 NE Pine Island Rd","","Cape Coral","FL","33909","1704","LEE" 
"BJ's WHOLESALE CLUB 170",-80.467941,25.462435,"650 SE 8th St","","Homestead","FL","33030","7405","MIAMI DADE" 
"BJ's WHOLESALE CLUB 179",-80.455399,25.684177,"16205 SW 88th St","","Miami","FL","33196","4912","MIAMI DADE" 
"BJ's WHOLESALE CLUB 171",-81.588211,30.224827,"8046 Philips Hwy","","Jacksonville","FL","32256","7406","DUVAL" 
"BJ's WHOLESALE CLUB 174",-80.293312,25.925432,"172501 NW 57TH AVE","","HIALEAH","FL","33015","","MIAMI DADE" 
"KWIK STOP",-80.066872,26.559149,"3001 N Seacrest Blvd","","Boynton Beach","FL","33435","1527","PALM BEACH" 
"A CIRCLE FOOD MART",-82.195641,28.382568,"15446 14th St","","Dade City","FL","33523","2306","PASCO" 
"EUROPEAN BAKERY & GROCERY",-82.694443,27.839355,"4441 Park Blvd","","Pinellas Park","FL","33781","3540","PINELLAS" 
"STAR FOOD MART",-83.582123,30.126717,"1209 N Jefferson St","","Perry","FL","32347","1837","TAYLOR" 
"KALINA'S COFFEE & EUROPEAN FOODS",-82.646873,27.830191,"6393 Mlk Jr St N Ste 112","","Saint Petersburg","FL","33702","6610","PINELLAS" 
"TLALCHAPA TIENDA MEXICANA",-81.304428,29.013714,"138 W BERESFORD AVENUE","","DELAND","FL","32720","","VOLUSIA" 
"PAPILLONS GROCERY STORE",-80.396309,25.53367,"25001 SW 127th Ave","Ste 108","Homestead","FL","33032","5834","MIAMI DADE" 
"WALGREEN 07755",-81.204102,29.47047,"2475 E Highway 100","","Palm Coast","FL","32164","2311","FLAGLER" 
"FLORIDIAN MINI MARKET INC",-82.436424,27.981567,"2012 E MARTIN LUTHER KING JR BLVD","","TAMPA","FL","33610","","HILLSBOROUGH" 
"WALGREEN 07918",-82.775482,27.997511,"5 Patricia Ave","","Dunedin","FL","34698","8102","PINELLAS" 
"WALGREEN 07827",-82.638809,27.84211,"7610 4th St N","","St Petersburg","FL","33702","5424","PINELLAS" 
"COUNTRY STORE",-81.620163,29.040258,"47433 Panther Rd","","Altoona","FL","32702","9156","LAKE" 
"KWIK STOP",-82.159599,29.186083,"2066 W Silver Springs Blvd","","Ocala","FL","34475","6366","MARION" 
"WALGREEN 04597",-80.144234,26.136948,"1 W Sunrise Blvd","","Ft Lauderdale","FL","33311","6202","BROWARD" 
"OPALOCKA LAND MARKET",-80.254692,25.900534,"400 Fisherman St","","Opa Locka","FL","33054","3818","MIAMI DADE" 
"CLASSIC MEAT MARKET PLACE",-80.147835,26.048658,"530 Stirling Rd","","Dania","FL","33004","3532","BROWARD" 
"PRESIDENT SUPERMARKET 21",-80.213272,25.943359,"18350 NW 7th Ave","","Miami","FL","33169","4410","MIAMI DADE" 
"WAL-MART NEIGHBORHOOD MARKET 4211",-81.453682,28.611288,"5559 Clarcona Ocoee Rd","","Orlando","FL","32810","4057","ORANGE" 
"TARGET STORE T-2155",-81.554573,30.628143,"463737 State Road 200","","Yulee","FL","32097","8652","NASSAU" 
"PUBLIX 1125",-81.527397,30.265383,"4413 Town Center Pkwy","Ste 100","Jacksonville","FL","32246","8570","DUVAL" 
"POPULAR MINI MARKET II",-80.196602,25.839823,"7050 N Miami Ave","","Miami","FL","33150","4036","MIAMI DADE" 
"FOODTOWN",-80.108765,26.758453,"5335 N Military Trl","Ste 60","West Palm Beach","FL","33407","3034","PALM BEACH" 
"FOODTOWN",-80.231995,26.046112,"6431 Stirling Rd","","Davie","FL","33314","7126","BROWARD" 
"TOM THUMB 152",-85.684547,30.768064,"2102 S Waukesha St","","Bonifay","FL","32425","3124","HOLMES" 
"926 MAIN ST FOOD MARKET",-81.403725,28.300621,"926 N Main St","","Kissimmee","FL","34744","4566","OSCEOLA" 
"FREDS STORE 2138",-82.987785,30.282116,"1535 Ohio Ave S","","Live Oak","FL","32064","4513","SUWANNEE" 
"FAMILY FOOD CENTER INC",-80.670952,26.685757,"301 W Avenue A","","Belle Glade","FL","33430","3070","PALM BEACH" 
"RODRIGUEZ GROCERIES INC",-80.279449,25.830929,"101 E 10th St","","Hialeah","FL","33010","4127","MIAMI DADE" 
"MR MIKE GROCERY",-80.248642,25.81719,"4701 NW 32nd Ave","","Miami","FL","33142","3311","MIAMI DADE" 
"MR BAKERY INC",-80.347282,25.891441,"3158 W 76th St","Suite No. 9","Hialeah","FL","33018","3886","MIAMI DADE" 
"ICE HOUSE FOOD MART",-80.854721,28.686533,"3171 US Highway 1","","Mims","FL","32754","3009","BREVARD" 
"WALGREEN 01990",-80.818779,28.585352,"2605 Barna Ave","","Titusville","FL","32780","5452","BREVARD" 
"LAS CUATRO HERMANAS CARNICERIA",-80.266304,25.859943,"810 E 41st St","","Hialeah","FL","33013","2410","MIAMI DADE" 
"WAL-MART SUPERCENTER 3348",-80.085716,26.793812,"101 N Congress Ave","","Lake Park","FL","33403","3804","PALM BEACH" 
"WAL-MART SUPERCENTER 3349",-82.046387,27.022856,"375 Kings Hwy","","Port Charlotte","FL","33983","5222","CHARLOTTE" 
"WAL-MART SUPERCENTER 3311",-80.245674,25.951839,"19501 NW 27th Ave","","Miami Gardens","FL","33056","2521","MIAMI DADE" 
"WAL-MART SUPERCENTER 3397",-80.205009,25.936598,"17650 NW 2nd Ave","","Miami Gardens","FL","33169","5019","MIAMI DADE" 
"BLANTON EXPRESS",-82.248619,28.416178,"34301 Blanton Rd","","Dade City","FL","33523","6230","PASCO" 
"SHOP SMART",-80.197052,26.257265,"535 NE 24th St","","Pompano Beach","FL","33064","5454","BROWARD" 
"DOLLAR GENERAL 10379",-81.285568,28.532122,"911 S Goldenrod Rd","","Orlando","FL","32822","8117","ORANGE" 
"CRAB STOP OF DAYTONA",-81.026657,29.205048,"240 S MARTIN LUTHER KING BLVD","","DAYTONA BEACH","FL","32114","","VOLUSIA" 
"ALDOS DELI & SUPERMARKET",-80.147171,25.976057,"927 Old Federal Hwy","","Hallandale Beach","FL","33009","7129","BROWARD" 
"MEAT PLACE PLUS",-80.370735,25.597973,"11108 SW 184th St","","Cutler Bay","FL","33157","6603","MIAMI DADE" 
"SELECTO SUPERMARKET",-80.239769,25.789419,"1630 NW 27th Ave","","Miami","FL","33125","2140","MIAMI DADE" 
"PERAZA DISTRIBUTORS INC",-80.175385,25.848938,"1061 SW 8th St","","Miami","FL","33130","3601","MIAMI DADE" 
"QUICK STOP FOOD STORE & DELI",-80.285194,26.211086,"7154 N Nob Hill Rd","","Tamarac","FL","33321","1839","BROWARD" 
"PINE HILLS PRODUCE INC",-81.447464,28.553217,"731 N Pine Hills Rd","","Orlando","FL","32808","7631","ORANGE" 
"WAL-MART SUPERCENTER 3625",-80.22551,26.149565,"3001 N STATE RD","#7","LAUDERDALE","FL","33313","","BROWARD" 
"WAL-MART NEIGHBORHOOD MARKET 3862",-81.067505,29.247272,"1905 N Nova Rd","","Holly Hill","FL","32117","1421","VOLUSIA" 
"TARGET STORE T-740",-86.659279,30.409618,"250 E Miracle Strip Pkwy","","Mary Esther","FL","32569","1924","OKALOOSA" 
"TARGET STORE T-873",-82.157921,29.174618,"2000 SW College Rd","","Ocala","FL","34471","1620","MARION" 
"X-Press Mart",-87.25444,30.509228,"202 E Olive Rd","","Pensacola","FL","32514","4531","ESCAMBIA" 
"WRIGHTS NUTRIENTS",-82.727615,28.253878,"6630 US Highway 19","","New Port Richey","FL","34652","1739","PASCO" 
"WALGREEN 10147",-84.591949,30.588003,"1217 W Jefferson St","","Quincy","FL","32351","2125","GADSDEN" 
"NEMA FOOD STORE",-81.722862,30.351921,"2231 Melson Ave","","Jacksonville","FL","32254","1848","DUVAL" 
"Aztec Supercentro 2000",-81.419014,26.418608,"208 W Main St","","Immokalee","FL","34142","3929","COLLIER" 
"DOLLAR GENERAL 10070",-82.263817,29.074265,"10244 SW 86th Cir","","Ocala","FL","34481","5531","MARION" 
"DOLLAR GENERAL 12015",-82.694809,28.21726,"7241 State Road 54","","New Port Richey","FL","34653","6106","PASCO" 
"Northcoast Steak and Seafood",-82.843903,30.261171,"4787 104th Ter","","Live Oak","FL","32060","7272","SUWANNEE" 
"SUNNY CITGO MART",-81.989601,28.031347,"2085 W Highland St","","Lakeland","FL","33815","3917","POLK" 
"AS GROCERY 5",-80.460709,25.456064,"1541 SE 12th Ave","Ste 5","Homestead","FL","33034","2699","MIAMI DADE" 
"WINN DIXIE 2247",-81.23278,29.553474,"1260 Palm Coast Pkwy NW","","Palm Coast","FL","32137","4738","FLAGLER" 
"CYPRESS FOOD MART",-82.484711,27.952084,"2324 W Cypress St","","Tampa","FL","33609","1719","HILLSBOROUGH" 
"LATINOS SUPERMARKET",-82.261024,27.938417,"131 N Mount Carmel Rd","","Valrico","FL","33594","3062","HILLSBOROUGH" 
"HUDSON BEACH MINI MART",-82.699821,28.360518,"6920 Clark St","","Hudson","FL","34667","1365","PASCO" 
"DOLLAR TREE 0199",-81.322914,29.865517,"1938 US Highway 1 S","","St Augustine","FL","32086","4233","ST JOHNS" 
"DOLLAR TREE 0583",-80.089966,26.706621,"2491 Okeechobee Blvd","Ste A","West Palm Beach","FL","33409","4058","PALM BEACH" 
"DOLLAR TREE 0810",-80.700455,28.369886,"755 N Courtenay Pkwy","","Merritt Island","FL","32953","4651","BREVARD" 
"DOLLAR TREE 2071",-82.13221,27.005997,"1825 TAMIAMI TRAIL","","PT CHARLOTTE","FL","33948","","CHARLOTTE" 
